category,lat,lon,name,city,country,type,sector,matrix,pfos,pfoa,pfos_pfoa,pfna,pfbs,pfhxa,pfhxs,pfas_sum,date,year,source_id,cluster,cluster_size
0,58.0819,11.8121,Inovyn Sverige AB,Stenungsund,26,0,13,,,,,,,,,,,,147,,
0,44.9168,4.96802,Aéroport Valence-Chabeuil,Valence,9,3,,,,,,,,,,,,,150,,
0,50.955,6.05976,AWACS Headquarter,Geilenkirchen,10,3,,,,,,,,,,,,,150,,
0,50.1766,7.06514,Fliegerhorst Büchel,Büchel,10,3,,,,,,,,,,,,,150,,
0,49.4377,7.60015,United States Air Force Air Base,Ramstein,10,3,,,,,,,,,,,,,150,,
0,49.9762,6.6969,United States Air Force Air Base,Spangdahlem,10,3,,,,,,,,,,,,,150,,
0,48.7165,11.5343,Fliegerhorst Ingolstadt/Manching,Manching,10,3,,,,,,,,,,,,,150,,
0,48.7119,11.2117,Fliegerhorst Neuburg,Neuburg an der Donau,10,3,,,,,,,,,,,,,150,,
0,47.0618,2.37043,Aéroport de Bourges,Bourges,9,3,,,,,,,,,,,,,150,,
0,48.0679,10.8231,Welfen-Kaserne,Landsberg am Lech,10,3,,,,,,,,,,,,,150,,
0,48.2049,11.2584,Fliegerhorst Fürstenfeldbruck,Maisach,10,3,,,,,,,,,,,,,150,,
0,49.3093,10.6369,Flugplatz Ansbach-Katterbach,Katterbach,10,3,,,,,,,,,,,,,150,,
0,49.2178,11.1001,Roth Air Base,Roth,10,3,,,,,,,,,,,,,150,,
0,49.4739,10.381,Illesheim Army Airfield,Illesheim,10,3,,,,,,,,,,,,,150,,
0,48.4383,10.2303,Leipheim Air Base,Leipheim,10,3,,,,,,,,,,,,,150,,
0,48.1864,10.8611,Fliegerhorst Lechfeld,Lagerlechfeld,10,3,,,,,,,,,,,,,150,,
0,47.8678,10.618,Fliegerhorst Kaufbeuren,Kaufbeuren,10,3,,,,,,,,,,,,,150,,
0,47.8357,10.871,Heeresflugplatz Altenstadt,Altenstadt,10,3,,,,,,,,,,,,,150,,
0,48.0734,10.9099,Fliegerhorst Landsberg/Lech,Penzing,10,3,,,,,,,,,,,,,150,,
0,42.4464,2.00952,Ecole de l'aviation légère de l'armée de Terre de Sainte-Léocadie,"Sainte-Léocadie, Okzitanien",9,3,,,,,,,,,,,,,150,,
0,43.6894,-1.07344,Ecole de l'aviation légère de l'armée de Terre de Dax,"Dax, Nouvelle-Aquitaine",9,3,,,,,,,,,,,,,150,,
0,43.9133,-0.50921,Base aérienne de Mont-de-Marsan,Mont-de-Marsan,9,3,,,,,,,,,,,,,150,,
0,44.8287,-0.715619,Base aérienne de Bordeaux – Mérignac,Bordeaux,9,3,,,,,,,,,,,,,150,,
0,44.5324,-1.12864,Base aérienne de Cazaux,Cazaux,9,3,,,,,,,,,,,,,150,,
0,41.9248,9.40532,Base aérienne de Solenzara,Solenzara,9,3,,,,,,,,,,,,,150,,
0,47.7799,-3.43519,Base d'aéronautique navale de Lann-Bihoué,Quéven,9,3,,,,,,,,,,,,,150,,
0,48.2829,-4.44195,Base d'aéronautique navale de Lanvéoc-Poulmic,Lanvéoc,9,3,,,,,,,,,,,,,150,,
0,48.5215,-4.14297,Base d'aéronautique navale de Landivisiau,Saint-Servais,9,3,,,,,,,,,,,,,150,,
0,43.385,6.387,Ecole de l'aviation légère de l'armée de Terre de Le Cannet-des-Maures,"Le Cannet-des-Maures, Provence",9,3,,,,,,,,,,,,,150,,
0,43.0973,6.1386,Base d'aéronautique navale d'Hyères,Hyères,9,3,,,,,,,,,,,,,150,,
0,43.7639,4.42149,BAN Nimes-Garron,Nimes,9,3,,,,,,,,,,,,,150,,
0,43.123,5.92617,Toulon arsenal,Toulon,9,3,,,,,,,,,,,,,150,,
0,48.3812,-4.50212,Brest Arsenal,Brest,9,3,,,,,,,,,,,,,150,,
0,49.6559,-1.64463,Cherbourg Naval Base,Cherbourg,9,3,,,,,,,,,,,,,150,,
0,48.7579,7.2066,1er régiment d'hélicoptères de combat de Phalsbourg,Phalsbourg-Bourscheid,9,3,,,,,,,,,,,,,150,,
0,49.2275,5.67212,3e régiment d'hélicoptères de combat d'Étain,Étain-Rouvres,9,3,,,,,,,,,,,,,150,,
0,43.3815,-0.418463,5e régiment d'hélicoptères de combat de Pau,Nouvelle-Aquitaine,9,3,,,,,,,,,,,,,150,,
0,43.3065,5.37497,Marseille Naval Fire Battalion,Marseille,9,3,,,,,,,,,,,,,150,,
0,43.5492,1.35728,Base aérienne de Toulouse – Francazal,Toulouse – Francazal,9,3,,,,,,,,,,,,,150,,
0,47.4544,11.278,Luttenseekaserne Mittenwald,Mittenwald,10,3,,,,,,,,,,,,,150,,
0,49.2363,11.8202,Truppenübungsplatz Hohenfels,Hohenfels,10,3,,,,,,,,,,,,,150,,
0,54.8592,9.03724,Military storage facility Ladelund,Ladelund,10,3,,,,,,,,,,,,,150,,
0,54.6907,9.00128,Military storage facility Bargum,Bargum,10,3,,,,,,,,,,,,,150,,
0,52.582,10.7541,Truppenlager Ehra-Lessin,Ehra-Lessien,10,3,,,,,,,,,,,,,150,,
0,53.2883,11.1898,Truppenübungsplatz Lübtheen,Lübtheen,10,3,,,,,,,,,,,,,150,,
0,47.5694,10.6792,Allgäu-Kaserne,Füssen,10,3,,,,,,,,,,,,,150,,
0,47.9139,12.6626,Standortübungsplatz Traunstein,Traunstein,10,3,,,,,,,,,,,,,150,,
0,48.1538,9.04966,Truppenübungsplatz Heuberg,Stetten am kalten Markt,10,3,,,,,,,,,,,,,150,,
0,48.2398,11.559,Schleissheim Army Airfield,Oberschleißheim,10,3,,,,,,,,,,,,,150,,
0,48.2208,9.9099,Fluplatz Laupheim,Laupheim,10,3,,,,,,,,,,,,,150,,
0,48.5619,10.1182,Ammunition storage facility Setzingen,Setzingen,10,3,,,,,,,,,,,,,150,,
0,48.814,13.5364,Kaserne Am goldenen Steig,Freyung,10,3,,,,,,,,,,,,,150,,
0,48.8307,11.438,Standortübungsplatz Ingolstadt-Hepberg,Heperg,10,3,,,,,,,,,,,,,150,,
0,49.5783,9.3457,Nibelungen-Kaserne,Walldürn,10,3,,,,,,,,,,,,,150,,
0,49.6464,7.32953,Truppenübungsplatz Baumholder,Idar-Oberstein,10,3,,,,,,,,,,,,,150,,
0,50.0717,9.84921,Truppenübungsplatz Hammelburg,Hammelburg,10,3,,,,,,,,,,,,,150,,
0,50.2149,7.03916,Gräfin-von-Maltzan-Kaserne,Ulmen,10,3,,,,,,,,,,,,,150,,
0,48.1864,10.8618,Fliegerhorst Lechfeld,Graben,10,3,,,,,,,,,,,,,150,,
0,49.5018,10.9637,Monteith Barracks,Fürth,10,3,,,,,,,,,,,,,150,,
0,53.6109,14.0391,Greifen-Kaserne,Torgelow,10,3,,,,,,,,,,,,,150,,
0,53.6823,14.2157,Truppenübungsplatz Jägerbrück,Eggesin,10,3,,,,,,,,,,,,,150,,
0,49.2169,11.8361,Hohenfels Army Airfield,Hohenfels,10,3,,,,,,,,,,,,,150,,
0,50.0492,10.1708,Conn Barracks,Geldersheim/Niederwerrn,10,3,,,,,,,,,,,,,150,,
0,54.7883,8.9574,Fliegerhorst Leck,Leck,10,3,,,,,,,,,,,,,150,,
0,51.2002,6.13582,Javelin Barracks,Niederkrüchten,10,3,,,,,,,,,,,,,150,,
0,48.6822,9.20023,Echterdingen,Stuttgart,10,3,,,,,,,,,,,,,150,,
0,51.2629,6.87748,Bergische Kaserne,Düsseldorf,10,3,,,,,,,,,,,,,150,,
0,53.7662,8.64277,Fliegerhorst Nordholz,Cuxhaven,10,3,,,,,,,,,,,,,150,,
0,54.4576,9.51374,Fliegerhorst Schleswig,Jagel,10,3,,,,,,,,,,,,,150,,
0,51.7694,13.1675,Fliegerhorst Holzdorf,Schönewalde,10,3,,,,,,,,,,,,,150,,
0,52.1575,12.2215,Truppenübungsplatz Altengrabow,Altengrabow,10,3,,,,,,,,,,,,,150,,
0,52.6511,12.1354,Truppenübungsplatz Klietz,Klietz,10,3,,,,,,,,,,,,,150,,
0,49.3924,9.95818,Niederstetten Air Base,Niederstetten,10,3,,,,,,,,,,,,,150,,
0,49.8005,8.62922,Major-Karl-Plagge-Kaserne,Pfungstadt,10,3,,,,,,,,,,,,,150,,
0,49.976,8.26779,Kurmainz-Kaserne,Mainz,10,3,,,,,,,,,,,,,150,,
0,54.3148,9.53797,Fliegerhorst Hohn,Hohn,10,3,,,,,,,,,,,,,150,,
0,54.1015,10.8072,Marinekaserne Neustadt,Neustadt in Holstein,10,3,,,,,,,,,,,,,150,,
0,52.4307,11.57,Truppenübungsplatz Altmark,Colbitz,10,3,,,,,,,,,,,,,150,,
0,50.3916,9.91072,Truppenübungsplatz Wildflecken,Wildflecken,10,3,,,,,,,,,,,,,150,,
0,43.5201,4.95603,Base aérienne de Istres – Le Tubé,Istres,9,3,,,,,,,,,,,,,150,,
0,44.1407,4.86876,Base aérienne d'Orange – Caritat,Orange,9,3,,,,,,,,,,,,,150,,
0,45.7689,15.8568,Zagreb-Lučko Air Force Base,Zagreb,3,3,,,,,,,,,,,,,150,,
0,43.5276,16.2882,"Divulje, Split Air Force Base",Divulje,3,3,,,,,,,,,,,,,150,,
0,43.5265,16.4271,Lora naval base,Split,3,3,,,,,,,,,,,,,150,,
0,44.8998,13.9234,Pula Air Force Base,Pula,3,3,,,,,,,,,,,,,150,,
0,34.7203,32.485,Andreas Papandreou Air Base,Paphos,4,3,,,,,,,,,,,,,150,,
0,35.1065,33.3217,Lakatamia Air Base,Lakatamia,4,3,,,,,,,,,,,,,150,,
0,35.2348,33.7325,Geçitkale Air Base,Lefkoniko,4,3,,,,,,,,,,,,,150,,
0,44.1096,15.347,Zadar Air Force Base,Zadar,3,3,,,,,,,,,,,,,150,,
0,35.2749,33.2674,İlker Karter / Pınarbaşı Air Base,Kyrenia,4,3,,,,,,,,,,,,,150,,
0,35.0145,33.716,Kingsfield Air Base (Dhekelia),Dhekelia,4,3,,,,,,,,,,,,,150,,
0,34.7252,33.282,Evangelos Florakis Naval Base,Limassol,4,3,,,,,,,,,,,,,150,,
0,49.9467,15.3846,Caslav Air Force Base,Caslav,5,3,,,,,,,,,,,,,150,,
0,49.1733,16.1188,Namest nad Oslavou Helicopter Base,Namest,5,3,,,,,,,,,,,,,150,,
0,50.1224,14.526,Prague - Kbely Air Transportation Base,Prague,5,3,,,,,,,,,,,,,150,,
0,50.0138,15.7386,Pardubice Airport,Pardubice,5,3,,,,,,,,,,,,,150,,
0,49.6756,13.2746,Plzeň-Líně airport,Pilsen,5,3,,,,,,,,,,,,,150,,
0,34.591,32.9877,RAF Akrotiri,Akrotiri,4,3,,,,,,,,,,,,,150,,
0,49.2741,14.5015,Bechyně airport,Bechin,5,3,,,,,,,,,,,,,150,,
0,45.7438,16.069,Pleso Air Force Base,Pleso/Zagreb,3,3,,,,,,,,,,,,,150,,
0,42.4523,27.5816,Atia Naval Base,Atia,2,3,,,,,,,,,,,,,150,,
0,51.0913,2.6525,Koksijde Air Base,Koksijde,1,3,,,,,,,,,,,,,150,,
0,49.8928,5.23034,Jehonville Air Base,Bertrix,1,3,,,,,,,,,,,,,150,,
0,50.5768,3.8314,United States Air Force Air Base,Chièvres,1,3,,,,,,,,,,,,,150,,
0,50.4679,6.18757,Elsenborn-Butgenbach Camp,Butgenbach,1,3,,,,,,,,,,,,,150,,
0,50.0351,5.44004,Saint-Hubert Air Base,Saint-Hubert,1,3,,,,,,,,,,,,,150,,
0,51,5.06541,Schaffen Air Base Training area,Diest,1,3,,,,,,,,,,,,,150,,
0,51.1446,3.47569,Ursel Air Base,Ursel,1,3,,,,,,,,,,,,,150,,
0,42.7227,26.5865,Novo Selo Range,Kotel,2,3,,,,,,,,,,,,,150,,
0,51.3948,4.95942,Weelde Air Base,Weelde,1,3,,,,,,,,,,,,,150,,
0,51.3359,3.20598,Belgian Naval Component Base,Zeebrugge,1,3,,,,,,,,,,,,,150,,
0,42.2912,24.714,Graf Ignatievo Air Base,Oblast Plowdiw,2,3,,,,,,,,,,,,,150,,
0,43.4521,24.5037,Kamenets.Dolna Mitropolija,Oblast Plewen,2,3,,,,,,,,,,,,,150,,
0,42.6966,23.4059,Vrazhdebna Air Base,Sofia,2,3,,,,,,,,,,,,,150,,
0,42.4559,26.3523,Bezmer Air Base,Jambol,2,3,,,,,,,,,,,,,150,,
0,42.0685,24.8509,Krumovo Air Base,Plowdiw,2,3,,,,,,,,,,,,,150,,
0,43.1851,27.8477,Chayka Naval Air Base (Varna-Chaika),Varna,2,3,,,,,,,,,,,,,150,,
0,51.2653,4.75315,Oostmalle Airfield,Malle,1,3,,,,,,,,,,,,,150,,
0,43.6073,5.1094,Base aérienne de Salon-de-Provence,Salon-de-Provence,9,3,,,,,,,,,,,,,150,,
0,57.0965,9.85425,Aalborg Air Base,Aalborg,6,3,,,,,,,,,,,,,150,,
0,55.2247,9.25364,Skrydstrup Air Base,Skrydstrup,6,3,,,,,,,,,,,,,150,,
0,60.0283,24.353,Naval Base,Kirkkonummi,8,3,,,,,,,,,,,,,150,,
0,60.4474,22.1434,Naval Base,Turku,8,3,,,,,,,,,,,,,150,,
0,47.784,6.3637,Base aérienne de Luxeuil – Saint-Sauveur,Luxeuil – Saint-Sauveur,9,3,,,,,,,,,,,,,150,,
0,48.584,5.95419,Base aérienne de Nancy – Ochey,Nancy – Ochey,9,3,,,,,,,,,,,,,150,,
0,48.6374,4.89904,Base aérienne de Saint-Dizier – Robinson,Saint-Dizier,9,3,,,,,,,,,,,,,150,,
0,49.2435,2.51059,Base aérienne de Creil,Kreil,9,3,,,,,,,,,,,,,150,,
0,48.8347,2.27319,Base aérienne de Paris,Paris,9,3,,,,,,,,,,,,,150,,
0,60.1501,24.9801,Finnish Naval Academy,"Suomenlinna, Helsinki",8,3,,,,,,,,,,,,,150,,
0,47.989,1.76026,Base aérienne de Orléans – Bricy,Orléans – Bricy,9,3,,,,,,,,,,,,,150,,
0,47.3203,1.6847,Détachement Air de Romorantin – Pruniers,Romorantin,9,3,,,,,,,,,,,,,150,,
0,47.0549,2.63194,Base aérienne d'Avord,Avord,9,3,,,,,,,,,,,,,150,,
0,49.0293,1.21983,Base aérienne d'Évreux – Fauville,Évreux – Fauville,9,3,,,,,,,,,,,,,150,,
0,48.7745,2.19959,Base aérienne de Vélizy – Villacoublay,Vélizy – Villacoublay,9,3,,,,,,,,,,,,,150,,
0,45.8901,-0.982783,Base aérienne de Rochefort – Saint-Agnant,Rochefort – Saint-Agnant,9,3,,,,,,,,,,,,,150,,
0,45.8964,-0.975876,Base aérienne de Cognac – Châteaubernard,Cognac – Châteaubernard,9,3,,,,,,,,,,,,,150,,
0,45.9884,5.32778,Base aérienne d'Ambérieu-en-Bugey,Ambérieu-en-Bugey,9,3,,,,,,,,,,,,,150,,
0,47.4319,0.707164,Base aérienne de Tours – Saint-Symphorien,Tours – Saint-Symphorien,9,3,,,,,,,,,,,,,150,,
0,56.2953,9.12449,Karup Air Base,Karup,6,3,,,,,,,,,,,,,150,,
0,62.4019,25.6728,Jyväskylä – Tikkakoski Air Base,Jyväskylä,8,3,,,,,,,,,,,,,150,,
0,61.4161,23.5878,Tampere-Pirkkala Air Base,Pirkkala,8,3,,,,,,,,,,,,,150,,
0,57.4325,10.5346,Navy Base,Frederikshavn,6,3,,,,,,,,,,,,,150,,
0,55.332,11.1321,Navy Base,Korsør,6,3,,,,,,,,,,,,,150,,
0,56.3382,8.57062,Military training area,Holstebro,6,3,,,,,,,,,,,,,150,,
0,55.6099,8.17722,Military training area,Oksbøl,6,3,,,,,,,,,,,,,150,,
0,59.263,24.2183,United States Air Force (USAF) Air Base,Harjumaa,7,3,,,,,,,,,,,,,150,,
0,59.2627,24.222,Ämari Air Base,Ämari,7,3,,,,,,,,,,,,,150,,
0,59.2358,25.9516,Tapa Army Base,Tapa,7,3,,,,,,,,,,,,,150,,
0,60.8974,26.9379,Utti Air Base,Utti,8,3,,,,,,,,,,,,,150,,
0,59.4567,24.7191,Miinisadam Naval Base,Tallin,7,3,,,,,,,,,,,,,150,,
0,57.8174,26.8499,Nursipalu training area,Võru / Rõuge,7,3,,,,,,,,,,,,,150,,
0,59.2892,27.7479,Sirgala training area,Narva-Jõesuu,7,3,,,,,,,,,,,,,150,,
0,59.3181,24.2011,Klooga training area,Klooga,7,3,,,,,,,,,,,,,150,,
0,59.3503,24.7,Männiku training area,Kiili / Saku,7,3,,,,,,,,,,,,,150,,
0,61.8567,24.7891,Halli Airport,"Kuorevesi, Jämsä",8,3,,,,,,,,,,,,,150,,
0,63.0094,27.7942,Rissala - Kuopio Air Base,Kuopio,8,3,,,,,,,,,,,,,150,,
0,66.5627,25.8309,Rovaniemi Air Base,Rovaniemi,8,3,,,,,,,,,,,,,150,,
0,59.3735,25.8206,Keskpolügoon Training ground,Kuusalu,7,3,,,,,,,,,,,,,150,,
0,50.5832,6.64327,Military storage facility,Mechernich,10,3,,,,,,,,,,,,,150,,
0,50.6158,6.90655,Military ammunition storage facility,Euskirchen,10,3,,,,,,,,,,,,,150,,
0,50.679,7.36513,Military storage facility,Königswinter,10,3,,,,,,,,,,,,,150,,
0,46.0325,12.5973,United States Air Force Air Base,Aviano,14,3,,,,,,,,,,,,,150,,
0,45.4329,10.268,United States Air Force Air Base,Ghedi,14,3,,,,,,,,,,,,,150,,
0,43.6191,10.3524,Camp Darby,close to Pisa,14,3,,,,,,,,,,,,,150,,
0,41.5431,15.7179,Amendola Air Base,Amendola,14,3,,,,,,,,,,,,,150,,
0,46.0318,12.5968,Aviano Air Base,Aviano,14,3,,,,,,,,,,,,,150,,
0,44.2255,12.3069,Cervia Air Base,Cervia,14,3,,,,,,,,,,,,,150,,
0,39.3559,8.97201,Decimomannu Air Base,"Decimomannu, Sardinia",14,3,,,,,,,,,,,,,150,,
0,37.5593,15.2127,Alliance Ground Surveillance Headquarter,Sigonella,14,3,,,,,,,,,,,,,150,,
0,45.434,10.2673,Ghedi Air Base,Ghedi,14,3,,,,,,,,,,,,,150,,
0,41.0577,14.0719,Grazzanise Air Base,Grazzanise/Campania,14,3,,,,,,,,,,,,,150,,
0,45.6857,12.0831,Istrana Air Base,Istrana/Veneto,14,3,,,,,,,,,,,,,150,,
0,41.543,12.9089,Latina Air Base (Enrico Comani Airport),Latina,14,3,,,,,,,,,,,,,150,,
0,41.6548,12.4462,Pratica di Mare Air Base,"Pomezia, Lazio",14,3,,,,,,,,,,,,,150,,
0,45.9824,13.0506,Rivolto Air Base,"Codroipo, Udine",14,3,,,,,,,,,,,,,150,,
0,37.4025,14.9224,Naval Air Station Sigonella,"Catania, Sicily",14,3,,,,,,,,,,,,,150,,
0,46.7284,12.2305,Toblach Airport,Toblach,14,3,,,,,,,,,,,,,150,,
0,40.7658,16.9334,Gioia del Colle Air Base,Gioia del Colle,14,3,,,,,,,,,,,,,150,,
0,37.9129,12.4931,Trapani–Birgi Airport,Trapani,14,3,,,,,,,,,,,,,150,,
0,37.9028,12.4963,AWACS forward operating air base,Trapani,14,3,,,,,,,,,,,,,150,,
0,54.4945,-8.23763,Finner Camp,Ballyshannon,13,3,,,,,,,,,,,,,150,,
0,39.6262,19.9172,Corfu Naval Base,"Mantoyki, Corfu",11,3,,,,,,,,,,,,,150,,
0,39.8717,25.0553,Myrina Naval Base,Lemnos island,11,3,,,,,,,,,,,,,150,,
0,40.6518,22.4885,Alexandria base,Alexandria,11,3,,,,,,,,,,,,,150,,
0,37.9813,23.3653,Megara base,Megara,11,3,,,,,,,,,,,,,150,,
0,39.4802,22.7672,Stefanovikion base,Stefanovikion,11,3,,,,,,,,,,,,,150,,
0,40.8576,25.9557,Alexandroupoli Airport,Alexandroupoli,11,3,,,,,,,,,,,,,150,,
0,47.3645,17.4968,United States Air Force Air Base,Pápa,12,3,,,,,,,,,,,,,150,,
0,53.0089,-6.46528,Glen of Imaal Training area,Wicklow Mountains,13,3,,,,,,,,,,,,,150,,
0,46.9186,19.7481,‘Dezsõ Szentgyörgyi’ Air Base (Kecskemét),Kecskemét,12,3,,,,,,,,,,,,,150,,
0,47.3609,17.4948,HDF Pápa Air Base (Pápa),Pápa,12,3,,,,,,,,,,,,,150,,
0,46.3947,17.9182,Taszár Air Base,Taszár,12,3,,,,,,,,,,,,,150,,
0,63.9863,-22.6054,Naval Air Station Keflavik,Reykjanesbær,30,3,,,,,,,,,,,,,150,,
0,53.3029,-6.45467,Casement Arerodome,Baldonnel,13,3,,,,,,,,,,,,,150,,
0,53.6455,-6.22897,Gormanstn Camp,Irishrown,13,3,,,,,,,,,,,,,150,,
0,53.4241,-7.94755,Custume Barracks,Athlone,13,3,,,,,,,,,,,,,150,,
0,51.8421,-8.2981,Naval Base,Haulbowline,13,3,,,,,,,,,,,,,150,,
0,47.1242,20.2329,Szolnok Helicopter Base,Szolnok,12,3,,,,,,,,,,,,,150,,
0,35.3017,26.2928,Kyriamadi Naval Base,Palaikastron,11,3,,,,,,,,,,,,,150,,
0,40.2399,18.1334,Airfield Lecce-Galatina,Salento,14,3,,,,,,,,,,,,,150,,
0,43.6871,10.3921,Aeroporto Galileo Galilei/ San Giusto,Pisa,14,3,,,,,,,,,,,,,150,,
0,55.0451,25.8043,General Silvestras Zlikaliskas Training Area,Pabrade,16,3,,,,,,,,,,,,,150,,
0,35.8525,14.4806,Malta Air Force,Luqa Airport,18,3,,,,,,,,,,,,,150,,
0,35.8957,14.5015,Hay Wharf,Floriana,18,3,,,,,,,,,,,,,150,,
0,51.45,5.37444,Eindhoven Air Base,Eindhoven,19,3,,,,,,,,,,,,,150,,
0,51.6572,5.70936,United States Air Force Air Base,Volkel,19,3,,,,,,,,,,,,,150,,
0,51.5653,4.92862,Gilze-Rijen Air Base,Gilze-Rijen,19,3,,,,,,,,,,,,,150,,
0,53.2247,5.75318,Leeuwarden Air Base,Leeuwarden,19,3,,,,,,,,,,,,,150,,
0,54.7897,23.4542,Kazlų Rūdos Training Centre,Kazlų Rūda,16,3,,,,,,,,,,,,,150,,
0,51.6563,5.70802,Volkel Air Base,Volkel,19,3,,,,,,,,,,,,,150,,
0,52.9206,4.78205,De Kooy Airfield,De Kooy,19,3,,,,,,,,,,,,,150,,
0,52.0592,5.87722,Deelen Air Base,Deelen,19,3,,,,,,,,,,,,,150,,
0,52.1342,5.28306,Soesterberg Air Base,Soesterberg,19,3,,,,,,,,,,,,,150,,
0,51.5261,5.85944,Luitenant-generaal Bestkazerne,Vredepeel,19,3,,,,,,,,,,,,,150,,
0,52.1667,4.41917,Vliegkamp Valkenburg,Valkenburg,19,3,,,,,,,,,,,,,150,,
0,52.956,4.78953,Nieuwe Haven Naval Base,Den Helder,19,3,,,,,,,,,,,,,150,,
0,51.4767,5.37222,Generaal Majoor de Ruyter van Steveninckkazerne,Oirschot,19,3,,,,,,,,,,,,,150,,
0,51.447,4.33767,Woensdrecht Air Base,Woensdrecht,19,3,,,,,,,,,,,,,150,,
0,41.6496,13.2938,Military airfield Frosinone,Frosinone/Latium,14,3,,,,,,,,,,,,,150,,
0,55.018,24.3913,Gaiziunu Training Range,Rukla,16,3,,,,,,,,,,,,,150,,
0,55.8944,23.3948,Šiauliai Air Base,Šiauliai,16,3,,,,,,,,,,,,,150,,
0,42.4318,12.0644,Military airfield Viterbo,Viterbo/Latium,14,3,,,,,,,,,,,,,150,,
0,38.9061,16.2422,Lamezia Terme International Airport,"Lamezia, Calabria",14,3,,,,,,,,,,,,,150,,
0,39.2531,9.0539,Cagliari Elmas Airport,"Cagliari, Sardinia",14,3,,,,,,,,,,,,,150,,
0,46.4619,11.3261,Francesco Baracca-Airport Bolzano,Bolzano,14,3,,,,,,,,,,,,,150,,
0,45.1317,7.61042,Military airfield Venaria Reale,Venaria Reale/Turin,14,3,,,,,,,,,,,,,150,,
0,40.5176,17.4049,Taranto-Grottaglie Marcello Arlotta Airport,Grottaglie,14,3,,,,,,,,,,,,,150,,
0,44.0904,9.9913,Sarzana-Luni Airport,Massa,14,3,,,,,,,,,,,,,150,,
0,55.7055,21.1226,Klaipėda Port,Klaipėda,16,3,,,,,,,,,,,,,150,,
0,43.5306,10.3064,Italian Naval Academy,Livorno,14,3,,,,,,,,,,,,,150,,
0,40.441,17.2499,Taranto Naval Base,Taranto,14,3,,,,,,,,,,,,,150,,
0,40.6396,17.9333,Brindisi Naval Base,Brindisi,14,3,,,,,,,,,,,,,150,,
0,40.99,14.2482,NSA Naples Navy Base,Naples,14,3,,,,,,,,,,,,,150,,
0,56.7785,24.8533,Lielvārde Air Base,Ogre,15,3,,,,,,,,,,,,,150,,
0,56.5463,21.0018,Naval Headquarters,Liepāja,15,3,,,,,,,,,,,,,150,,
0,57.1243,24.4304,Ādaži Training area,Kadaga,15,3,,,,,,,,,,,,,150,,
0,55.9838,26.5129,Meža Mackeviči training ground,Daugavpils,15,3,,,,,,,,,,,,,150,,
0,44.1009,9.81677,La Spezia Naval Base,La Spezia,14,3,,,,,,,,,,,,,150,,
0,37.7657,23.5576,Troulos Aeginas,"Aegina, Egina island",11,3,,,,,,,,,,,,,150,,
0,38.1915,24.0633,Agia Marina,South Evoikos,11,3,,,,,,,,,,,,,150,,
0,38.0049,23.8391,Agia Paraskevi,Agia Paraskevi,11,3,,,,,,,,,,,,,150,,
0,53.5338,7.88851,Flugplatz Jever,Jever,10,3,,,,,,,,,,,,,150,,
0,53.5482,7.66747,Fliegerhorst Wittmundhafen,Wittmund,10,3,,,,,,,,,,,,,150,,
0,54.3251,10.8449,Truppenübungsplatz Putlos,Oldenburg in Holstein,10,3,,,,,,,,,,,,,150,,
0,53.9193,12.2782,Laage Airbase,Laage,10,3,,,,,,,,,,,,,150,,
0,54.0243,10.0258,Truppenübungsplatz Boostedt,Boostedt,10,3,,,,,,,,,,,,,150,,
0,54.1766,12.1161,Marinestützpunkt Hohe Düne,Rohstock,10,3,,,,,,,,,,,,,150,,
0,54.3571,10.1439,Marinestützpunkt Kiel,Kiel,10,3,,,,,,,,,,,,,150,,
0,53.5179,8.13526,Marinearsenal Wilhelmshaven,Wilhelmshaven,10,3,,,,,,,,,,,,,150,,
0,54.3667,9.19912,Standortübungsplatz Seeth,Seeth,10,3,,,,,,,,,,,,,150,,
0,54.4729,9.8616,Marinestützpunkt Eckernförde,Eckernförde,10,3,,,,,,,,,,,,,150,,
0,54.5072,9.1302,Flugplatz Husum-Schwesing,Husum,10,3,,,,,,,,,,,,,150,,
0,54.8297,9.50854,Meierwik-Kaserne,Flensburg,10,3,,,,,,,,,,,,,150,,
0,49.9939,11.6297,Christensen Barracks,Bindlach,10,3,,,,,,,,,,,,,150,,
0,49.6516,7.30522,Baumholder Army Airfield,Reichenbach,10,3,,,,,,,,,,,,,150,,
0,52.5648,13.2976,Berlin-Tegel,Berlin,10,3,,,,,,,,,,,,,150,,
0,52.5875,8.34546,Fliegerhorst Diepholz,Diepholz,10,3,,,,,,,,,,,,,150,,
0,54.3974,10.217,Ammunition storage Laboe,Laboe,10,3,,,,,,,,,,,,,150,,
0,52.9201,10.1839,Fliegerhorst Faßberg,Faßberg,10,3,,,,,,,,,,,,,150,,
0,53.4861,7.66228,Luftverteidigungsanlage Brockzetel,Aurich,10,3,,,,,,,,,,,,,150,,
0,53.3354,9.24143,Fallschirmjägerkaserne Seedorf,Seedorf,10,3,,,,,,,,,,,,,150,,
0,50.8628,10.77,Standortübungsplatz Ohrdruf,Ohrdruf,10,3,,,,,,,,,,,,,150,,
0,50.8315,6.65837,Fliegerhorst Nörvenich,Nörvenich,10,3,,,,,,,,,,,,,150,,
0,50.8941,9.43939,Standortübungsplatz Schwarzenborn,Schwarzenborn,10,3,,,,,,,,,,,,,150,,
0,51.1177,9.28716,Fritzlar Air Base,Fritzlar,10,3,,,,,,,,,,,,,150,,
0,51.6522,9.21405,Military Radar Station,Brakel,10,3,,,,,,,,,,,,,150,,
0,51.6795,6.30533,Kaserne Uedem,Uedem,10,3,,,,,,,,,,,,,150,,
0,51.6947,6.60096,Schill Kaserne,Wesel,10,3,,,,,,,,,,,,,150,,
0,53.4008,7.91383,Ammunition storage facility Zetel,Zetel,10,3,,,,,,,,,,,,,150,,
0,51.7047,6.99993,Ammunition storage facility Wulfen,Wulfen,10,3,,,,,,,,,,,,,150,,
0,52.2669,12.7891,Truppenübungsplatz Lehnin,Brück,10,3,,,,,,,,,,,,,150,,
0,52.2796,9.08063,International Helicopter Training Centre,Bückeburg,10,3,,,,,,,,,,,,,150,,
0,52.2927,7.38489,Rheine-Bentlage Air Base,Rheine,10,3,,,,,,,,,,,,,150,,
0,52.4762,13.1456,Royal Air Force Gatow,Berlin,10,3,,,,,,,,,,,,,150,,
0,52.5919,10.022,Heeresflugplatz Celle,Celle,10,3,,,,,,,,,,,,,150,,
0,52.8076,9.8175,Truppenübungsplatz Bergen,Bergen,10,3,,,,,,,,,,,,,150,,
0,52.9898,10.0735,Hindenburg-Kaserne,Münster,10,3,,,,,,,,,,,,,150,,
0,51.8067,10.9791,Feldwebel-Anton-Schmid-Kaserne,Rendsburg,10,3,,,,,,,,,,,,,150,,
0,49.6989,11.9402,Grafenwöhr Army Airfield,Grafenwöhr,10,3,,,,,,,,,,,,,150,,
0,49.6872,11.7997,Grafenwöhr Traiing Area,Grafenwöhr,10,3,,,,,,,,,,,,,150,,
0,49.4481,7.84024,Kaiserslautern Depot Army Heli Port,Kaiserslautern,10,3,,,,,,,,,,,,,150,,
0,37.5284,22.4016,Tripoli Air Base,Tripoli,11,3,,,,,,,,,,,,,150,,
0,39.9185,25.2364,Lemnos Air Base,Myrina,11,3,,,,,,,,,,,,,150,,
0,38.9693,24.4873,Skyros Air Base,Skyros,11,3,,,,,,,,,,,,,150,,
0,35.1955,25.3279,Kasteli Air Base,Kasteli/Heraklion,11,3,,,,,,,,,,,,,150,,
0,38.6024,21.3511,Agrinio Air Base,Agrinio,11,3,,,,,,,,,,,,,150,,
0,38.9273,20.7651,Aktion Air Base,Aktion,11,3,,,,,,,,,,,,,150,,
0,36.3854,28.1176,Rhodes Air Base,Rhodes,11,3,,,,,,,,,,,,,150,,
0,40.5342,23.0241,Sedes Air Base,Thessaloniki,11,3,,,,,,,,,,,,,150,,
0,35.0639,24.7659,Tympaki Airport,Tympaki,11,3,,,,,,,,,,,,,150,,
0,40.5214,22.9705,Mikra Air Base,(Thessaloniki),11,3,,,,,,,,,,,,,150,,
0,37.9348,23.6279,Hellenic Naval Academy,Piräus,11,3,,,,,,,,,,,,,150,,
0,38.1392,23.951,Kotroni Airport-Heliport,Kotroni,11,3,,,,,,,,,,,,,150,,
0,37.9934,23.5756,Hellenic Navy Helicopter School,Skaramagka,11,3,,,,,,,,,,,,,150,,
0,37.9719,23.5303,Amfiali Heliport Station,Salamis Island,11,3,,,,,,,,,,,,,150,,
0,37.9696,23.5277,Salamis Naval Base,Salamis Island,11,3,,,,,,,,,,,,,150,,
0,35.4965,24.1476,Souda Bay,"Souda, Crete",11,3,,,,,,,,,,,,,150,,
0,35.3402,25.1803,Heraklion International Airport,Heraklion,11,3,,,,,,,,,,,,,150,,
0,35.5341,24.1499,Souda Air Base,Chania,11,3,,,,,,,,,,,,,150,,
0,39.6507,22.4652,Larissa Air Base,Larissa,11,3,,,,,,,,,,,,,150,,
0,38.1099,23.7838,Tatoi-Dekeleia Air Base,Tatoi,11,3,,,,,,,,,,,,,150,,
0,50.8626,7.12072,Flughafen Köln-Bonn,Köln/Bonn,10,3,,,,,,,,,,,,,150,,
0,49.4025,7.55859,Landstuhl Army Heli Port,Landstuhl,10,3,,,,,,,,,,,,,150,,
0,52.7264,7.32995,Fliegerhorst Meppen,Meppen,10,3,,,,,,,,,,,,,150,,
0,48.6821,9.19786,Stuttgart Army Airfield,Stuttgart,10,3,,,,,,,,,,,,,150,,
0,52.4579,9.42704,Fliegerhorst Wunstorf,Wunstorf,10,3,,,,,,,,,,,,,150,,
0,50.051,8.32532,Wiesbaden Air Base,Wiesbaden,10,3,,,,,,,,,,,,,150,,
0,49.6341,11.7654,Vilseck Army Air Field,Vilseck,10,3,,,,,,,,,,,,,150,,
0,49.2287,8.34911,Germersheim Army Depot,Germersheim,10,3,,,,,,,,,,,,,150,,
0,49.39,7.43268,Miesau Army Depot,Miesau,10,3,,,,,,,,,,,,,150,,
0,53.039,10.1188,Truppenübungsplatz Munster,Munster,10,3,,,,,,,,,,,,,150,,
0,51.8547,8.76758,Truppenübungsplatz Senne,Schlangen,10,3,,,,,,,,,,,,,150,,
0,51.4251,14.6756,Truppenübungsplatz Oberlausitz,Oberlausitz,10,3,,,,,,,,,,,,,150,,
0,52.4355,7.17525,Luft-/Bodenschießplatz Nordhorn,Nordhorn,10,3,,,,,,,,,,,,,150,,
0,37.9257,21.2903,Andravida Air Base,Andravida,11,3,,,,,,,,,,,,,150,,
0,38.1527,21.4251,Araxos military airport,Patras,11,3,,,,,,,,,,,,,150,,
0,38.0657,23.5555,Eleusis military base,Elefsina,11,3,,,,,,,,,,,,,150,,
0,38.3413,23.5647,Tanagra Air Base,Tanagra,11,3,,,,,,,,,,,,,150,,
0,50.7585,4.76699,Beauvechain Air Base,Beauvechain,1,3,,,,,,,,,,,,,150,,
0,50.9509,5.58543,Zutendaal Air Base,Zutendaal,1,3,,,,,,,,,,,,,150,,
0,50.9131,4.491,Melsbroek Air Base,Brussels/Zaventem,1,3,,,,,,,,,,,,,150,,
0,50.2423,4.64676,Florennes Air Base,Florennes,1,3,,,,,,,,,,,,,150,,
0,37.1887,-3.77736,F.G.L. Airport Granada-Jaén Airport,Granada,25,2,,,,,,,,,,,,,149,,
0,40.2941,-3.72383,Getafe Air Base,Getafe,25,2,,,,,,,,,,,,,149,,
0,38.8729,1.37312,Ibiza Airport,Ibiza (Eivissa),25,2,,,,,,,,,,,,,149,,
0,36.7446,-6.06011,Jerez Airport,Jerez de la Frontera,25,2,,,,,,,,,,,,,149,,
0,37.775,-0.812389,San Javier Airport,San Javier,25,2,,,,,,,,,,,,,149,,
0,42.589,-5.65556,León Airport,León,25,2,,,,,,,,,,,,,149,,
0,42.461,-2.32224,Logroño-Agoncillo Airport,Logroño,25,2,,,,,,,,,,,,,149,,
0,41.9046,2.76177,Girona-Costa Brava Airport,Girona,25,2,,,,,,,,,,,,,149,,
0,40.4719,-3.56264,Adolfo Suárez Madrid–Barajas Airport,Madrid,25,2,,,,,,,,,,,,,149,,
0,39.8626,4.21865,Menorca Airport,Mahón (Maó),25,2,,,,,,,,,,,,,149,,
0,37.803,-1.125,Región de Murcia International Airport,Corvera,25,2,,,,,,,,,,,,,149,,
0,37.1749,-5.61594,Moron Air Base,Morón,25,2,,,,,,,,,,,,,149,,
0,39.5517,2.73881,Palma de Mallorca Airport,Palma de Mallorca,25,2,,,,,,,,,,,,,149,,
0,42.77,-1.64633,Pamplona Airport,Pamplona,25,2,,,,,,,,,,,,,149,,
0,37.9511,-1.23032,Alcantarilla Air Base,Alcantarilla,25,2,,,,,,,,,,,,,149,,
0,38.8565,-3.96994,Ciudad Real International Airport,Ciudad Real,25,2,,,,,,,,,,,,,149,,
0,36.6749,-4.49911,Málaga-Costa del Sol Airport,Málaga,25,2,,,,,,,,,,,,,149,,
0,41.1474,1.16717,Reus Airport,Reus,25,2,,,,,,,,,,,,,149,,
0,37.1332,-3.63569,Armilla Air Base,Armilla,25,2,,,,,,,,,,,,,149,,
0,40.3707,-3.78514,Madrid-Cuatro Vientos Airport,Madrid,25,2,,,,,,,,,,,,,149,,
0,27.9319,-15.3866,Gran Canaria Airport,Gran Canaria Island,25,2,,,,,,,,,,,,,149,,
0,28.9455,-13.6052,César Manrique-Lanzarote Airport,San Bartolomé,25,2,,,,,,,,,,,,,149,,
0,28.0445,-16.5725,Tenerife Sur Airport,Tenerife,25,2,,,,,,,,,,,,,149,,
0,28.4827,-16.3415,Tenerife Norte-Ciudad de La Laguna Airport,Tenerife,25,2,,,,,,,,,,,,,149,,
0,35.2798,-2.95626,Melilla Airport,Melilla,25,2,,,,,,,,,,,,,149,,
0,38.9485,-1.86352,Albacete Airport / Los Llanos Air Base,Albacete,25,2,,,,,,,,,,,,,149,,
0,38.2822,-0.558156,Alicante-Elche Miguel Hernández Airport,Alicante,25,2,,,,,,,,,,,,,149,,
0,41.7282,0.535023,Lleida-Alguaire Airport,Lleida,25,2,,,,,,,,,,,,,149,,
0,36.8439,-2.3701,Almería Airport,Almería,25,2,,,,,,,,,,,,,149,,
0,37.842,-4.84888,Córdoba Airport,Córdoba,25,2,,,,,,,,,,,,,149,,
0,43.3011,-2.91061,Bilbao Airport,Bilbao,25,2,,,,,,,,,,,,,149,,
0,42.3576,-3.62076,Burgos Airport,Burgos,25,2,,,,,,,,,,,,,149,,
0,41.2971,2.07846,Josep Tarradellas Barcelona-El Prat Airport,Barcelona,25,2,,,,,,,,,,,,,149,,
0,38.8913,-6.82133,Badajoz Airport,Badajoz,25,2,,,,,,,,,,,,,149,,
0,40.2139,0.073333,Castellón-Costa Azahar Airport,Castellón de la Plana,25,2,,,,,,,,,,,,,149,,
0,43.3021,-8.37726,A Coruña Airport,Culleredo,25,2,,,,,,,,,,,,,149,,
0,43.5636,-6.03462,Asturias Airport,Ranón,25,2,,,,,,,,,,,,,149,,
0,28.6265,-17.7556,La Palma Airport,"Sta Cruz de la Palma, La Palma Island",25,2,,,,,,,,,,,,,149,,
0,36.6452,-6.34946,Rota Naval Station Airport,Rota,25,2,,,,,,,,,,,,,149,,
0,43.3565,-1.79061,San Sebastián Airport,Hondarribia,25,2,,,,,,,,,,,,,149,,
0,59.3459,14.4959,Karlskoga Airport,,26,2,,,,,,,,,,,,,149,,
0,60.9579,14.5114,Mora Airport,Mora,26,2,,,,,,,,,,,,,149,,
0,58.7886,16.9122,Stockholm Skavsta Airport,Nyköping,26,2,,,,,,,,,,,,,149,,
0,61.1584,12.8425,Scandinavian Mountains Airport,Malung-Sälen,26,2,,,,,,,,,,,,,149,,
0,55.9217,14.0855,Kristianstad Airport,Kristianstad,26,2,,,,,,,,,,,,,149,,
0,56.6855,16.2876,Kalmar Airport,Kalmar,26,2,,,,,,,,,,,,,149,,
0,55.5363,13.3762,Malmö Sturup Airport,Malmö,26,2,,,,,,,,,,,,,149,,
0,58.4264,12.7144,Såtenäs Air Base,Såtenäs,26,2,,,,,,,,,,,,,149,,
0,56.6911,12.8202,Halmstad Airport,Halmstad,26,2,,,,,,,,,,,,,149,,
0,62.0478,14.4229,Sveg Airport,Sveg,26,2,,,,,,,,,,,,,149,,
0,67.1324,20.8146,Gällivare Airport,Gällivare,26,2,,,,,,,,,,,,,149,,
0,63.0486,17.7689,Kramfors-Sollefteå Höga Kusten Airport,Nyland,26,2,,,,,,,,,,,,,149,,
0,64.5483,18.7162,Lycksele Airport,Lycksele,26,2,,,,,,,,,,,,,149,,
0,62.5281,17.4439,Sundsvall-Härnösand Airport,Sundsvall/ Härnösand,26,2,,,,,,,,,,,,,149,,
0,63.4083,18.99,Örnsköldsvik Airport,Örnsköldsvik,26,2,,,,,,,,,,,,,149,,
0,67.822,20.3368,Kiruna Airport,Kiruna,26,2,,,,,,,,,,,,,149,,
0,56.9291,14.728,Växjö Kronoberg Airport,Växjö,26,2,,,,,,,,,,,,,149,,
0,40.9521,-5.50199,Salamanca Airport,Salamanca,25,2,,,,,,,,,,,,,149,,
0,58.3181,12.345,Trollhättan-Vänersborg Airport,Trollhättan,26,2,,,,,,,,,,,,,149,,
0,57.7747,11.8704,Gothenburg City Airport,Gothenburg,26,2,,,,,,,,,,,,,149,,
0,42.8963,-8.41514,Santiago-Rosalía de Castro Airport,Santiago de Compostela,25,2,,,,,,,,,,,,,149,,
0,40.4103,-1.21737,Teruel Airport,Teruel,25,2,,,,,,,,,,,,,149,,
0,40.4879,-3.45681,Madrid–Torrejón Airport / Torrejón Air Base,Madrid,25,2,,,,,,,,,,,,,149,,
0,39.4893,-0.481625,Valencia Airport,Valencia,25,2,,,,,,,,,,,,,149,,
0,41.7061,-4.85194,Valladolid Airport,Valladolid,25,2,,,,,,,,,,,,,149,,
0,42.8828,-2.72447,Vitoria Airport,Alava,25,2,,,,,,,,,,,,,149,,
0,42.2318,-8.62677,Vigo Airport,Vigo,25,2,,,,,,,,,,,,,149,,
0,58.4564,13.9727,Skövde Airport,Skövde,26,2,,,,,,,,,,,,,149,,
0,43.4271,-3.82001,Seve Ballesteros-Santander Airport,Santander,25,2,,,,,,,,,,,,,149,,
0,37.418,-5.89311,Sevilla Airport,Sevilla,25,2,,,,,,,,,,,,,149,,
0,37.3517,-6.01456,Tablada Airport,Sevilla,25,2,,,,,,,,,,,,,149,,
0,58.4023,15.5257,Malmen Air Base,Linköping,26,2,,,,,,,,,,,,,149,,
0,56.2667,15.265,Ronneby Airport,Ronneby,26,2,,,,,,,,,,,,,149,,
0,58.4981,13.0532,Råda Air Base,Råda,26,2,,,,,,,,,,,,,149,,
0,57.6628,12.2798,Gothenburg-Landvetter Airport,Gothenburg,26,2,,,,,,,,,,,,,149,,
0,57.7576,14.0687,Jönköping Airport,Jönköping,26,2,,,,,,,,,,,,,149,,
0,41.6662,-1.04155,Zaragoza Airport,Zaragoza,25,2,,,,,,,,,,,,,149,,
0,27.8148,-17.8871,El Hierro Airport,El Hierro Island,25,2,,,,,,,,,,,,,149,,
0,28.4527,-13.8638,Fuerteventura Airport,El Matorral,25,2,,,,,,,,,,,,,149,,
0,41.9527,2.3072,Folgueroles Airfield,Folgueroles,25,2,,,,,,,,,,,,,149,,
0,37.0144,-7.96591,Faro Airport,Faro,21,2,,,,,,,,,,,,,149,,
0,39.0922,-28.0298,Graciosa Airport,Santa Cruz da Graciosa,21,2,,,,,,,,,,,,,149,,
0,38.5199,-28.7159,Horta Airport,Horta,21,2,,,,,,,,,,,,,149,,
0,38.7618,-27.0908,Lajes Airport,Praia da Vitória,21,2,,,,,,,,,,,,,149,,
0,32.6979,-16.7745,Madeira International Airport Cristiano Ronaldo,Funchal,21,2,,,,,,,,,,,,,149,,
0,39.8283,-8.8875,Monte Real Air Base,,21,2,,,,,,,,,,,,,149,,
0,38.7093,-9.03368,Montijo Air Base,Montijo,21,2,,,,,,,,,,,,,149,,
0,39.4553,-31.1314,Flores Airport,Santa Cruz das Flores,21,2,,,,,,,,,,,,,149,,
0,40.9159,-8.64592,Ovar Air Base,Ovar,21,2,,,,,,,,,,,,,149,,
0,38.5543,-28.4413,Pico Airport,Pico Island,21,2,,,,,,,,,,,,,149,,
0,37.1493,-8.58396,Portimão Airport,Portimão,21,2,,,,,,,,,,,,,149,,
0,41.2481,-8.68139,Francisco de Sá Carneiro Airport,Porto,21,2,,,,,,,,,,,,,149,,
0,33.0734,-16.35,Porto Santo Airport,Vila Baleira,21,2,,,,,,,,,,,,,149,,
0,38.7813,-9.13592,Humberto Delgado Airport (Lisbon Portela Airport),Lisbon,21,2,,,,,,,,,,,,,149,,
0,38.6655,-28.1758,São Jorge Airport,Velas,21,2,,,,,,,,,,,,,149,,
0,39.2116,-8.05654,Aeródromo Municipal de Ponte de Sor,Ponte de Sor,21,2,,,,,,,,,,,,,149,,
0,37.7412,-25.6979,João Paulo II Airport,Ponta Delgada,21,2,,,,,,,,,,,,,149,,
0,38.8311,-9.33955,Sintra Air Base,Sintra,21,2,,,,,,,,,,,,,149,,
0,38.5335,-7.88964,Évora Airfield,Évora,21,2,,,,,,,,,,,,,149,,
0,40.1588,-8.47081,Aerodromo Municipal de Coimbra,Coimbra,21,2,,,,,,,,,,,,,149,,
0,53.5847,14.9022,Szczecin-Goleniów Solidarność Airport,Goleniow,20,2,,,,,,,,,,,,,149,,
0,53.7906,15.8263,Swidwin Military Air Base,,20,2,,,,,,,,,,,,,149,,
0,53.4819,20.9377,Olsztyn-Mazury Airport,Olsztyn,20,2,,,,,,,,,,,,,149,,
0,51.5844,20.0978,Tomaszow Mazowiecki Military Air Base,Tomaszów Mazowiecki,20,2,,,,,,,,,,,,,149,,
0,52.1657,20.9671,Warsaw Chopin Airport,Warsaw,20,2,,,,,,,,,,,,,149,,
0,51.1027,16.8858,Copernicus Wrocław Airport,Wrocław,20,2,,,,,,,,,,,,,149,,
0,52.1385,15.7986,Zielona Góra-Babimost Airport,Babimost,20,2,,,,,,,,,,,,,149,,
0,38.725,-9.35523,Cascais Airport,Cascais,21,2,,,,,,,,,,,,,149,,
0,49.6578,21.8175,Iwonicz Airfield,Krosno,20,2,,,,,,,,,,,,,149,,
0,54.4789,17.1075,Redzikowo Air Base,Słupsk,20,2,,,,,,,,,,,,,149,,
0,38.8833,-9.0301,Alverca Air Base,Vila Franca de Xira,21,2,,,,,,,,,,,,,149,,
0,36.9714,-25.1706,Santa Maria Airport,Vila do Porto,21,2,,,,,,,,,,,,,149,,
0,41.8578,-6.70713,Bragança Airport,Bragança,21,2,,,,,,,,,,,,,149,,
0,38.0789,-7.9324,Beja Airport / Airbase,Beja,21,2,,,,,,,,,,,,,149,,
0,41.5871,-8.44514,Braga Municipal Aerodrome,Braga,21,2,,,,,,,,,,,,,149,,
0,39.847,-7.44111,Aerodromo de Castelo Branco,Castelo Branco,21,2,,,,,,,,,,,,,149,,
0,51.1828,16.1782,Legnica Airport,,20,2,,,,,,,,,,,,,149,,
0,39.4751,-8.36458,Tancos Airbase,Tancos,21,2,,,,,,,,,,,,,149,,
0,41.2773,-8.51621,Vilar de Luz Airfield,Maia,21,2,,,,,,,,,,,,,149,,
0,41.2743,-7.72047,Vila Real Airport,Vila Real,21,2,,,,,,,,,,,,,149,,
0,45.0625,28.7143,Tulcea Danube Delta Airport,Tulcea,22,2,,,,,,,,,,,,,149,,
0,46.4677,24.4125,Transilvania Târgu Mureş International Airport,Târgu Mureş,22,2,,,,,,,,,,,,,149,,
0,45.8099,21.3379,Timişoara Traian Vuia Airport,Timişoara,22,2,,,,,,,,,,,,,149,,
0,44.0773,24.4164,Deveselu Air Base,Deveselu,22,2,,,,,,,,,,,,,149,,
0,48.1702,17.2127,M. R. Štefánik Airport,Bratislava,23,2,,,,,,,,,,,,,149,,
0,48.6631,21.2411,Košice Airport,Košice,23,2,,,,,,,,,,,,,149,,
0,48.402,17.1184,Kuchyňa Air Base,Malacky,23,2,,,,,,,,,,,,,149,,
0,47.6875,26.3541,Suceava Stefan cel Mare Airport,Suceava,22,2,,,,,,,,,,,,,149,,
0,48.6252,17.8284,Piešťany Airport,Piešťany,23,2,,,,,,,,,,,,,149,,
0,49.0736,20.2411,Poprad-Tatry Airport,Poprad,23,2,,,,,,,,,,,,,149,,
0,49.2315,18.6135,Žilina Airport,Žilina,23,2,,,,,,,,,,,,,149,,
0,48.2044,17.1917,Vajnory Slovaki Airfield,Bratislava,23,2,,,,,,,,,,,,,149,,
0,45.9,15.5302,Cerklje Air Base,Cerklje ob Krki,24,2,,,,,,,,,,,,,149,,
0,46.2237,14.4576,Ljubljana Jože Pučnik Airport,Ljubljana,24,2,,,,,,,,,,,,,149,,
0,46.4799,15.6861,Maribor Airport,,24,2,,,,,,,,,,,,,149,,
0,45.4734,13.615,Portorož Airport,Portorož,24,2,,,,,,,,,,,,,149,,
0,48.6378,19.1341,Sliač Airport,Sliač,23,2,,,,,,,,,,,,,149,,
0,47.7033,22.8857,Satu Mare Airport,Satu Mare,22,2,,,,,,,,,,,,,149,,
0,45.7856,24.0913,Sibiu International Airport,Sibiu,22,2,,,,,,,,,,,,,149,,
0,45.7056,25.5229,Brașov-Ghimbav International Airport (U.C.),Brașov (Ghimbav),22,2,,,,,,,,,,,,,149,,
0,40.7255,-7.88899,Aerodromo Goncalves Lobato (Viseu Airport),Viseu,21,2,,,,,,,,,,,,,149,,
0,40.2648,-7.47996,Covilhã Airfield,Covilhã,21,2,,,,,,,,,,,,,149,,
0,45.1587,27.4309,Ianca Air Base,Ianca,22,2,,,,,,,,,,,,,149,,
0,44.3923,27.7267,Feteşti Air Base,Feteşti,22,2,,,,,,,,,,,,,149,,
0,45.2164,26.9786,Boboc Air Base,Boboc,22,2,,,,,,,,,,,,,149,,
0,46.1766,21.262,Arad International Airport,Arad,22,2,,,,,,,,,,,,,149,,
0,46.5219,26.9103,Bacău Airport,Bacău,22,2,,,,,,,,,,,,,149,,
0,47.6606,23.4673,Maramureș International Airport,Baia Mare,22,2,,,,,,,,,,,,,149,,
0,44.5032,26.1021,Băneasa International Airport,Bucharest,22,2,,,,,,,,,,,,,149,,
0,44.3622,28.4883,Mihail Kogălniceanu International Airport,Constanţa,22,2,,,,,,,,,,,,,149,,
0,46.7852,23.6862,Cluj-Napoca International Airport,Cluj-Napoca,22,2,,,,,,,,,,,,,149,,
0,45.42,22.2533,Caransebeş Airport,Caransebeş,22,2,,,,,,,,,,,,,149,,
0,46.5023,23.8859,Câmpia Turzii Air Base,Câmpia Turzii,22,2,,,,,,,,,,,,,149,,
0,44.3181,23.8886,Craiova Airport,Craiova,22,2,,,,,,,,,,,,,149,,
0,47.1803,27.6208,Iaşi Airport,Iaşi,22,2,,,,,,,,,,,,,149,,
0,47.0253,21.9025,Oradea International Airport,Oradea,22,2,,,,,,,,,,,,,149,,
0,44.5711,26.085,Henri Coandă International Airport,Bucharest,22,2,,,,,,,,,,,,,149,,
0,64.6248,21.0769,Skellefteå Airport,Skellefteå,26,2,,,,,,,,,,,,,149,,
0,52.7932,6.19719,John Post Barracks,Havelte,19,3,,,,,,,,,,,,,150,,
0,63.7918,20.2828,Umeå Airport,Umeå,26,2,,,,,,,,,,,,,149,,
0,65.5903,19.2819,Arvidsjaur Airport,Arvidsjaur,26,2,,,,,,,,,,,,,149,,
0,57.0228,-7.44306,Barra Airport,Eoligarry,27,2,,,,,,,,,,,,,149,,
0,56.4992,-6.86917,Tiree Airport,Balemartine,27,2,,,,,,,,,,,,,149,,
0,56.374,-2.86886,Leuchars Station Airfield,"Leuchars, Fife",27,2,,,,,,,,,,,,,149,,
0,57.7052,-3.33917,RAF Lossiemouth,Lossiemouth,27,2,,,,,,,,,,,,,149,,
0,52.205,0.175,Cambridge Airport,Cambridge,27,2,,,,,,,,,,,,,149,,
0,52.6758,1.28278,Norwich Airport,Norwich,27,2,,,,,,,,,,,,,149,,
0,51.885,0.235,London Stansted Airport,London,27,2,,,,,,,,,,,,,149,,
0,58.2156,-6.33111,Stornoway Airport,"Stornoway, Western Isles",27,2,,,,,,,,,,,,,149,,
0,52.0722,-0.616667,Cranfield Airport,Cranfield,27,2,,,,,,,,,,,,,149,,
0,51.8369,-1.32,Oxford (Kidlington) Airport,Kidlington,27,2,,,,,,,,,,,,,149,,
0,51.6164,-1.09583,RAF Benson,Benson,27,2,,,,,,,,,,,,,149,,
0,52.4093,0.561,RAF Lakenheath,Lakenheath,27,2,,,,,,,,,,,,,149,,
0,52.3619,0.486406,RAF Mildenhall,Mildenhall,27,2,,,,,,,,,,,,,149,,
0,52.1275,0.956189,Wattisham Airfield,Stowmarket,27,2,,,,,,,,,,,,,149,,
0,52.3572,-0.107833,RAF Wyton,St. Ives,27,2,,,,,,,,,,,,,149,,
0,51.6822,-1.79003,RAF Fairford,Fairford,27,2,,,,,,,,,,,,,149,,
0,50.7344,-3.41389,Exeter International Airport,Exeter,27,2,,,,,,,,,,,,,149,,
0,51.75,-1.58362,RAF Brize Norton,Brize Norton,27,2,,,,,,,,,,,,,149,,
0,56.4525,-3.02583,Dundee Airport,Dundee,27,2,,,,,,,,,,,,,149,,
0,55.502,-4.58702,Glasgow Prestwick Airport,"Prestwick, South Ayrshire",27,2,,,,,,,,,,,,,149,,
0,53.7451,-2.88306,Warton Aerodrome,Warton,27,2,,,,,,,,,,,,,149,,
0,53.1781,-2.97778,Hawarden Airport,Hawarden,27,2,,,,,,,,,,,,,149,,
0,55.0375,-1.69167,Newcastle Airport,Newcastle,27,2,,,,,,,,,,,,,149,,
0,54.5092,-1.42941,Teesside International Airport,"Darlington, Durham",27,2,,,,,,,,,,,,,149,,
0,52.8311,-1.32806,East Midlands Airport,Nottingham,27,2,,,,,,,,,,,,,149,,
0,55.05,-2.55,RAF Spadeadam,Spadeadam,27,2,,,,,,,,,,,,,149,,
0,52.7982,-2.66804,RAF Shawbury,Shawbury,27,2,,,,,,,,,,,,,149,,
0,57.4811,-7.36278,Benbecula Airport,Balivanich,27,2,,,,,,,,,,,,,149,,
0,53.2481,-4.53534,Anglesey Airport,Angelsey,27,2,,,,,,,,,,,,,149,,
0,59.8789,-1.29556,Sumburgh Airport,Lerwick,27,2,,,,,,,,,,,,,149,,
0,58.4589,-3.09306,Wick Airport,Wick,27,2,,,,,,,,,,,,,149,,
0,57.2019,-2.19778,Aberdeen Dyce Airport,Aberdeen,27,2,,,,,,,,,,,,,149,,
0,57.5425,-4.0475,Inverness Airport,Inverness,27,2,,,,,,,,,,,,,149,,
0,55.8719,-4.43306,Glasgow International Airport,"Paisley, Renfrewshire",27,2,,,,,,,,,,,,,149,,
0,55.9501,-3.37229,Edinburgh Airport,Edinburgh,27,2,,,,,,,,,,,,,149,,
0,55.6819,-6.25667,Islay Airport,Port Ellen,27,2,,,,,,,,,,,,,149,,
0,58.9578,-2.905,Kirkwall Airport,Orkney Islands,27,2,,,,,,,,,,,,,149,,
0,53.8659,-1.66057,Leeds Bradford Airport,Leeds,27,2,,,,,,,,,,,,,149,,
0,51.2341,-0.942825,RAF Odiham,Odiham,27,2,,,,,,,,,,,,,149,,
0,51.553,-0.418167,RAF Northolt,London,27,2,,,,,,,,,,,,,149,,
0,60.4328,-1.29611,Scatsta Airport,Shetland Islands,27,2,,,,,,,,,,,,,149,,
0,58.5839,-3.72694,Dounreay/Thurso Airport,Thurso,27,2,,,,,,,,,,,,,149,,
0,57.6494,-3.56064,RAF Kinloss,Kinloss,27,2,,,,,,,,,,,,,149,,
0,53.3943,-1.38849,Sheffield City Heliport,Sheffield,27,2,,,,,,,,,,,,,149,,
0,51.5194,-2.59083,Bristol Filton Airport,Bristol,27,2,,,,,,,,,,,,,149,,
0,51.4391,-2.28639,RAF Colerne Air Base,Colerne,27,2,,,,,,,,,,,,,149,,
0,52.7357,-0.648769,RAF Cottesmore,Cottesmore,27,2,,,,,,,,,,,,,149,,
0,53.7197,-0.566333,Brough Airport,Brough,27,2,,,,,,,,,,,,,149,,
0,52.7547,1.35722,RAF Coltishall,Norwich,27,2,,,,,,,,,,,,,149,,
0,48.3196,16.1156,Brumowski Air Base,Langenlebarn,0,3,,,,,,,,,,,,,150,,
0,47.2028,14.7422,Zeltweg Air Base,Zeltweg,0,3,,,,,,,,,,,,,150,,
0,47.5359,14.1414,Aigen airfield,Aigen im Ennstal,0,3,,,,,,,,,,,,,150,,
0,48.2292,14.1942,Hörsching airfield,Hörsching,0,3,,,,,,,,,,,,,150,,
0,48.6771,15.3279,Military training area Allentsteig,Allentsteig,0,3,,,,,,,,,,,,,150,,
0,50.5769,3.83107,United States Air Force Air Base,Chievres,1,3,,,,,,,,,,,,,150,,
0,51.1696,5.46989,United States Air Force Air Base,Kleine Brogel,1,3,,,,,,,,,,,,,150,,
0,56.2686,-2.60659,RNAS Crail,"Anstruther, Fife",27,2,,,,,,,,,,,,,149,,
0,52.64,-2.30558,DCAE Cosford Air Base,Cosford,27,2,,,,,,,,,,,,,149,,
0,51.3422,1.34611,Kent International Airport (Manston),Manston,27,2,,,,,,,,,,,,,149,,
0,51.5051,-1.99343,RAF Lyneham,Lyneham,27,2,,,,,,,,,,,,,149,,
0,53.093,-0.166014,RAF Coningsby,Coningsby,27,2,,,,,,,,,,,,,149,,
0,54.1372,-1.42025,RAF Dishforth,Dishforth,27,2,,,,,,,,,,,,,149,,
0,54.2924,-1.5354,RAF Leeming Air Base,Leeming,27,2,,,,,,,,,,,,,149,,
0,53.8343,-1.1955,Leeds East Airport,Church Fenton,27,2,,,,,,,,,,,,,149,,
0,52.3426,0.772939,RAF Honington,Thetford,27,2,,,,,,,,,,,,,149,,
0,53.3078,-0.550833,RAF Scampton,Scampton,27,2,,,,,,,,,,,,,149,,
0,52.6126,-0.476453,RAF Wittering,Wittering,27,2,,,,,,,,,,,,,149,,
0,50.4228,-4.10583,Plymouth City Airport,Plymouth,27,2,,,,,,,,,,,,,149,,
0,54.0489,-1.25275,RAF Linton-On-Ouse,Linton-On-Ouse,27,2,,,,,,,,,,,,,149,,
0,54.2055,-1.38209,RAF Topcliffe,Topcliffe,27,2,,,,,,,,,,,,,149,,
0,53.0303,-0.483242,RAF Cranwell,Cranwell,27,2,,,,,,,,,,,,,149,,
0,52.9622,-0.561625,RAF Barkston Heath,Grantham,27,2,,,,,,,,,,,,,149,,
0,52.6484,0.550692,RAF Marham,Marham,27,2,,,,,,,,,,,,,149,,
0,57.7576,-3.94818,RNAS Fearn Air Base,"Tain, Ross",27,2,,,,,,,,,,,,,149,,
0,53.3381,-2.14889,Manchester Woodford Airport,Manchester,27,2,,,,,,,,,,,,,149,,
0,53.4805,-1.01066,Robin Hood Doncaster Sheffield Airport,Doncaster,27,2,,,,,,,,,,,,,149,,
0,53.1662,-0.523811,RAF Waddington,Waddington,27,2,,,,,,,,,,,,,149,,
0,54.1286,-3.2675,Barrow Walney Island Airport,Barrow-in-Furness,27,2,,,,,,,,,,,,,149,,
0,53.5744,-0.350833,Humberside Airport,Grimsby,27,2,,,,,,,,,,,,,149,,
0,53.7717,-3.02861,Blackpool International Airport,Blackpool,27,2,,,,,,,,,,,,,149,,
0,65.8061,15.0828,Hemavan Airport,Hemavan,26,2,,,,,,,,,,,,,149,,
0,58.6109,16.1036,Bråvalla Air Base,Norrköping,26,2,,,,,,,,,,,,,149,,
0,59.4145,17.8821,Barkarby Airport,Stockholm,26,2,,,,,,,,,,,,,149,,
0,56.6108,15.6048,Emmaboda Airfield,Emmaboda,26,2,,,,,,,,,,,,,149,,
0,61.7681,17.0807,Hudiksvall Airport,Hudiksvall,26,2,,,,,,,,,,,,,149,,
0,62.4814,17.0029,Sättna Airport,,26,2,,,,,,,,,,,,,149,,
0,47.0839,6.79284,Les Eplatures Airport,La Chaux-de-Fonds,28,2,,,,,,,,,,,,,149,,
0,67.2456,23.0689,Pajala Airport,,26,2,,,,,,,,,,,,,149,,
0,46.2381,6.10895,Geneva Cointrin International Airport,Geneva,28,2,,,,,,,,,,,,,149,,
0,46.9439,8.28417,Alpnach Air Base,Alpnach,28,2,,,,,,,,,,,,,149,,
0,47.3986,8.64823,Dübendorf Air Base,Zurich,28,2,,,,,,,,,,,,,149,,
0,47.0924,8.30518,Emmen Air Base,,28,2,,,,,,,,,,,,,149,,
0,46.8432,6.91506,Payerne Air Base,,28,2,,,,,,,,,,,,,149,,
0,46.0043,8.91058,Lugano Airport,Lugano,28,2,,,,,,,,,,,,,149,,
0,46.9134,7.49975,Bern-Belp Airport,Bern-Belp,28,2,,,,,,,,,,,,,149,,
0,47.1816,7.41719,Grenchen Airport,Grenchen,28,2,,,,,,,,,,,,,149,,
0,46.2192,7.32694,Sion Airport,Sion,28,2,,,,,,,,,,,,,149,,
0,47.4581,8.54806,Zürich Airport,Zurich,28,2,,,,,,,,,,,,,149,,
0,64.9609,17.6966,Storuman Airport,Storuman,26,2,,,,,,,,,,,,,149,,
0,56.2961,12.8471,Ängelholm-Helsingborg Airport,Ängelholm,26,2,,,,,,,,,,,,,149,,
0,61.2615,17.0991,Söderhamn Airport,Söderhamn,26,2,,,,,,,,,,,,,149,,
0,63.1944,14.5003,Åre Östersund Airport,Östersund,26,2,,,,,,,,,,,,,149,,
0,59.2237,15.038,Örebro Airport,Örebro,26,2,,,,,,,,,,,,,149,,
0,60.0201,13.5789,Hagfors Airport,Råda,26,2,,,,,,,,,,,,,149,,
0,59.4447,13.3374,Karlstad Airport,Karlstad,26,2,,,,,,,,,,,,,149,,
0,59.5894,16.6336,Stockholm Västerås Airport,Stockholm / Västerås,26,2,,,,,,,,,,,,,149,,
0,65.5438,22.122,Luleå Airport,Luleå,26,2,,,,,,,,,,,,,149,,
0,56.0828,13.2125,Ljungbyhed Airport,Ljungbyhed,26,2,,,,,,,,,,,,,149,,
0,59.6519,17.9186,Stockholm-Arlanda Airport,Stockholm,26,2,,,,,,,,,,,,,149,,
0,60.422,15.5152,Dala Airport,Borlange,26,2,,,,,,,,,,,,,149,,
0,60.5933,16.9514,Gävle Sandviken Airport,Gävle / Sandviken,26,2,,,,,,,,,,,,,149,,
0,58.4062,15.6805,Linköping City Airport,Linköping,26,2,,,,,,,,,,,,,149,,
0,58.5863,16.2506,Norrköping Airport,Norrköping,26,2,,,,,,,,,,,,,149,,
0,60.1576,12.9913,Torsby Airport,Torsby,26,2,,,,,,,,,,,,,149,,
0,59.3511,16.7084,Eskilstuna Airport,Eskilstuna,26,2,,,,,,,,,,,,,149,,
0,57.6628,18.3462,Visby Airport,Visby,26,2,,,,,,,,,,,,,149,,
0,59.3544,17.9417,Stockholm-Bromma Airport,Stockholm,26,2,,,,,,,,,,,,,149,,
0,47.485,9.56077,St Gallen Altenrhein Airport,Altenrhein,28,2,,,,,,,,,,,,,149,,
0,46.5341,9.88411,Samedan Airport,,28,2,,,,,,,,,,,,,149,,
0,47.28,8.88194,Flugplatz Hasenstrick,,28,2,,,,,,,,,,,,,149,,
0,53.3336,-2.84972,Liverpool John Lennon Airport,Liverpool,27,2,,,,,,,,,,,,,149,,
0,51.8747,-0.368333,London Luton Airport,London,27,2,,,,,,,,,,,,,149,,
0,50.78,-1.8425,Bournemouth Airport,Bournemouth,27,2,,,,,,,,,,,,,149,,
0,50.9503,-1.3568,Southampton Airport,Southampton,27,2,,,,,,,,,,,,,149,,
0,51.1872,-1.0335,Lasham Airfield,Lasham,27,2,,,,,,,,,,,,,149,,
0,50.4406,-4.99541,Cornwall Airport Newquay,Newquay,27,2,,,,,,,,,,,,,149,,
0,50.8356,-0.297222,Shoreham Airport,Brighton,27,2,,,,,,,,,,,,,149,,
0,51.3827,-2.71909,Bristol Airport,Bristol,27,2,,,,,,,,,,,,,149,,
0,51.3308,0.0325,London Biggin Hill Airport,London,27,2,,,,,,,,,,,,,149,,
0,51.5053,0.055278,London City Airport,London,27,2,,,,,,,,,,,,,149,,
0,51.2758,-0.776333,Farnborough Airport,Farnborough,27,2,,,,,,,,,,,,,149,,
0,51.3239,-0.8475,Blackbushe Airport,Yateley,27,2,,,,,,,,,,,,,149,,
0,51.4706,-0.461941,London Heathrow Airport,London,27,2,,,,,,,,,,,,,149,,
0,51.5714,0.695556,Southend Airport,London,27,2,,,,,,,,,,,,,149,,
0,50.9561,0.939167,Lydd Airport,"Lydd, Ashford",27,2,,,,,,,,,,,,,149,,
0,54.9375,-2.80917,Carlisle Airport,Carlisle,27,2,,,,,,,,,,,,,149,,
0,51.1481,-0.190278,London Gatwick Airport,London,27,2,,,,,,,,,,,,,149,,
0,51.6053,-4.06783,Swansea Airport,Swansea,27,2,,,,,,,,,,,,,149,,
0,51.3967,-3.34333,Cardiff International Airport,Cardiff,27,2,,,,,,,,,,,,,149,,
0,51.8331,-4.96111,Haverfordwest Airport,Haverfordwest,27,2,,,,,,,,,,,,,149,,
0,47.4106,7.05167,Porrentruy Airport,Porrentruy,28,2,,,,,,,,,,,,,149,,
0,54.6575,-6.21583,Belfast International Airport,Belfast,27,2,,,,,,,,,,,,,149,,
0,54.3989,-7.65167,Enniskillen/St Angelo Airport,Enniskillen,27,2,,,,,,,,,,,,,149,,
0,54.6181,-5.8725,George Best Belfast City Airport,Belfast,27,2,,,,,,,,,,,,,149,,
0,55.0428,-7.16111,City of Derry Airport,Derry,27,2,,,,,,,,,,,,,149,,
0,52.4539,-1.74803,Birmingham International Airport,Birmingham,27,2,,,,,,,,,,,,,149,,
0,52.3697,-1.47972,Coventry Airport,Coventry,27,2,,,,,,,,,,,,,149,,
0,51.8942,-2.16722,Gloucestershire Airport,Staverton,27,2,,,,,,,,,,,,,149,,
0,52.92,-1.07917,Nottingham Airport,Nottingham,27,2,,,,,,,,,,,,,149,,
0,53.3494,-2.27952,Manchester Airport,Manchester,27,2,,,,,,,,,,,,,149,,
0,51.0872,-4.15034,Royal Marines Base Chivenor Airport,Chivenor,27,2,,,,,,,,,,,,,149,,
0,51.1522,-1.74741,MoD Boscombe Down Airport,Amesbury,27,2,,,,,,,,,,,,,149,,
0,50.0861,-5.25571,RNAS Culdrose,Helston,27,2,,,,,,,,,,,,,149,,
0,51.4048,-3.43575,St. Athan Airport,St. Athan,27,2,,,,,,,,,,,,,149,,
0,51.0094,-2.63882,RNAS Yeovilton,Yeovil,27,2,,,,,,,,,,,,,149,,
0,55.4372,-5.68639,Campbeltown Airport,Campbeltown,27,2,,,,,,,,,,,,,149,,
0,59.1906,-2.77222,Eday Airport,Eday,27,2,,,,,,,,,,,,,149,,
0,64.5791,16.8336,Vilhelmina South Lapland Airport,Vilhelmina,26,2,,,,,,,,,,,,,149,,
0,45.8997,15.5153,Cerklje ob Krki Air Base,Cerklje ob Krki,24,3,,,,,,,,,,,,,150,,
0,46.0664,14.5583,Barracks of Edvard Peperk,Ljubljana,24,3,,,,,,,,,,,,,150,,
0,63.6953,9.60328,AWACS forward operating air base,Ørland,29,3,,,,,,,,,,,,,150,,
0,45.6928,3.59052,Papeterie de Giroux,Olliergues,9,0,7,,,,,,,,,,,,160,,
0,45.2164,4.81246,SAICA EL Champblain-Laveyron,Laveyron,9,0,7,,,,,,,,,,,,160,,
0,47.2823,6.13026,Gemdoubs,Novillars,9,0,7,,,,,,,,,,,,160,,
0,46.9778,0.688243,Papeteries Palm,Descartes Cedex,9,0,7,,,,,,,,,,,,160,,
0,48.261,7.22345,Papeterie Rossmann,Sainte-Croix-aux-Mines,9,0,7,,,,,,,,,,,,160,,
0,48.5621,7.79585,Blue Paper,Strasbourg,9,0,7,,,,,,,,,,,,160,,
0,48.4965,3.4831,SAICA EL Nogent-sur-Seine,Nogent sur Seine,9,0,7,,,,,,,,,,,,160,,
0,44.6282,-0.977784,Smurfit Kappa Cellulose du Pin,Biganos,9,0,7,,,,,,,,,,,,160,,
0,49.4994,4.3646,SKPRF Rethel,Rethel,9,0,7,,,,,,,,,,,,160,,
0,49.723,2.53377,DS Smith Contoire-Hamel,Contoire-Hamel,9,0,7,,,,,,,,,,,,160,,
0,50.7155,2.27536,Norpaper Avot-Vallée,Saint Omer Cedex,9,0,7,,,,,,,,,,,,160,,
0,49.3661,3.41224,Saica Venizel,Venizel,9,0,7,,,,,,,,,,,,160,,
0,50.6955,2.12277,Sical,Lumbres,9,0,7,,,,,,,,,,,,160,,
0,50.7066,2.22264,Wizpaper,Wizernes,9,0,7,,,,,,,,,,,,160,,
0,49.3679,1.11068,DS Smith Rouen,Saint Etienne du Rouvray Cedex,9,0,7,,,,,,,,,,,,160,,
0,45.7811,1.20219,Lacaux Frères,Bosmie-l'Aiguille,9,0,7,,,,,,,,,,,,160,,
0,50.708,2.36137,Cartonneries de Gondardennes,Wardrecques,9,0,7,,,,,,,,,,,,160,,
0,45.6475,0.10613,Papeterie Saint Michel,Saint Michel d'Entraygues,9,0,7,,,,,,,,,,,,160,,
0,48.1529,7.24065,DS Smith Paper Kaysersberg,Kaysersbert,9,0,7,,,,,,,,,,,,160,,
0,45.3013,0.264643,Ahlstrom-Munksjö Marchais,Saint Séverin,9,0,7,,,,,,,,,,,,160,,
0,48.6121,7.78117,Lana Papiers Spéciaux II,Strasbourg Cedex,9,0,7,,,,,,,,,,,,160,,
0,48.3653,6.8748,Papeteries de Clairefontaine,Etival Clairefontaine,9,0,7,,,,,,,,,,,,160,,
0,49.3187,1.16995,Double A,Alizay,9,0,7,,,,,,,,,,,,160,,
0,45.1246,1.2263,Condat,Le Lardin Saint Lazare,9,0,7,,,,,,,,,,,,160,,
0,48.1931,6.70479,Papeteries des Vosges,Laval-sur-Vologne,9,0,7,,,,,,,,,,,,160,,
0,45.066,5.76857,Papeteries de Vizille,Viziville,9,0,7,,,,,,,,,,,,160,,
0,49.4954,5.17375,Ahlstrom-Munksjö Stenay,Stenay,9,0,7,,,,,,,,,,,,160,,
0,42.4829,2.68059,Sterimed Palalda,Amélie les Bains,9,0,7,,,,,,,,,,,,160,,
0,44.2077,-1.26994,Gascogne Papier,Mimizan Cedex,9,0,7,,,,,,,,,,,,160,,
0,44.815,-0.536246,Papeterie de Bègles,Bègles Cedex,9,0,7,,,,,,,,,,,,160,,
0,45.5235,4.91309,Ahlstrom-Munksjö La Gère,Point Evèque,9,0,7,,,,,,,,,,,,160,,
0,47.9991,-3.67862,Glatfelter Scaer,Scaer,9,0,7,,,,,,,,,,,,160,,
0,47.8778,-3.54549,PDM Industries,Quimperlé,9,0,7,,,,,,,,,,,,160,,
0,48.1147,6.53839,Ahlstrom-Munksjö Arches,Arches,9,0,7,,,,,,,,,,,,160,,
0,50.7712,3.08423,Ahlstrom-Munksjö Bousbecque,Bousbecques,9,0,7,,,,,,,,,,,,160,,
0,49.3567,0.508847,Ahlstrom-Munksjö Pont Audemer,Pont Audemer Cedex,9,0,7,,,,,,,,,,,,160,,
0,42.961,1.17364,Papeteries de Saint Girons,Saint-Girons Cedex,9,0,7,,,,,,,,,,,,160,,
0,47.1598,5.88745,Papeterie Zuber Rieder,Boussières,9,0,7,,,,,,,,,,,,160,,
0,47.6659,0.266129,Allard Emballages,Aubigne Racan,9,0,7,,,,,,,,,,,,160,,
0,44.0041,4.91552,SKPRF Alfa,Vedene Cedex,9,0,7,,,,,,,,,,,,160,,
0,48.2572,0.674977,ESSITY Theil,Val au Perche,9,0,7,,,,,,,,,,,,160,,
0,48.3776,6.90404,Clairefontaine,Étival-Clairefontaine,9,0,7,,,,,,,,,,,,160,,
0,43.7834,4.6528,Fibre excellence,Tarascon,9,0,7,,,,,,,,,,,,160,,
0,43.0972,0.719498,Fibre excellence,Saint-Gaudens,9,0,7,,,,,,,,,,,,160,,
0,47.2848,5.03939,Tetra Pak,Dijon,9,0,7,,,,,,,,,,,,161,,
0,51.3208,9.85086,DS Smith,Witzenhausen,10,0,7,,,,,,,,,,,,162,,
0,48.4979,8.37394,"Baiersbronn Frischfaser Karton, Eerbeek Baiersbronn Group (EBG)",Baiersbronn,10,0,7,,,,,,,,,,,,163,,
0,50.771,3.08983,WEPA Lille,Bousbecque,9,0,7,,,,,,,,,,,,160,,
0,49.2093,7.93638,Kartonfabrik Buchmann,Annweiler,10,0,7,,,,,,,,,,,,163,,
0,52.6175,7.85966,Delkeskamp Verpackungswerke,Nortrup,10,0,7,,,,,,,,,,,,163,,
0,52.6253,10.246,Drewsen Spezialpapiere & Co.,Lachendorf,10,0,7,,,,,,,,,,,,163,,
0,49.9874,9.15714,"DS Smith Paper Deutschland, Werk Aschaffenburg",Aschaffenburg,10,0,7,,,,,,,,,,,,163,,
0,51.3207,9.8499,"DS Smith Paper Deutschland, Werk Witzenhausen",Witzenhausen,10,0,7,,,,,,,,,,,,163,,
0,49.535,8.45958,Essity Operations Mannheim,Mannheim,10,0,7,,,,,,,,,,,,163,,
0,51.2103,6.71465,Essity Operations Neuss,Neuss,10,0,7,,,,,,,,,,,,163,,
0,51.3238,9.84901,Essity Operations Witzenhausen,Witzenhausen,10,0,7,,,,,,,,,,,,163,,
0,50.7844,7.26822,Creapaper,Hennef (Sieg),10,0,7,,,,,,,,,,,,163,,
0,47.2005,-1.55199,Norpaper Nantes,Nantes,9,0,7,,,,,,,,,,,,160,,
0,48.2808,3.92621,WEPA Troyes,La Rivière de Corps,9,0,7,,,,,,,,,,,,160,,
0,48.0711,7.55495,DS Smith Kunheim,Kunheim,9,0,7,,,,,,,,,,,,160,,
0,42.9469,1.06658,Papeteries Léon Martin,Engomer,9,0,7,,,,,,,,,,,,160,,
0,48.4096,6.83296,RCR - Raon Circular Regeneration,Raon l'Etape,9,0,7,,,,,,,,,,,,160,,
0,44.8341,0.71285,Ahlstrom-Munksjö Rottersac,Lalinde,9,0,7,,,,,,,,,,,,160,,
0,49.4955,5.17378,Ahlstrom-Munksjö Stenay,Stenay,9,0,7,,,,,,,,,,,,160,,
0,44.364,4.88643,Papeteries de Montségur,Montségur sur Lauzon,9,0,7,,,,,,,,,,,,160,,
0,47.6928,2.70293,ESSITY Gien,Gien Cedex,9,0,7,,,,,,,,,,,,160,,
0,48.7303,5.97673,Kimberly-Clark Villey,Villey Saint Etienne,9,0,7,,,,,,,,,,,,160,,
0,48.7707,6.13528,Sofidel France Frouard,Frouard,9,0,7,,,,,,,,,,,,160,,
0,48.1893,6.70888,Lucart,Laval-sur-Vologne,9,0,7,,,,,,,,,,,,160,,
0,49.0201,-1.50183,PAPECO - Papeterie du Cotentin,Coutances Cedex,9,0,7,,,,,,,,,,,,160,,
0,48.0346,0.369087,Papeterie le Bourray,Saint Mars la Brière,9,0,7,,,,,,,,,,,,160,,
0,49.1443,1.13903,ESSITY Hondouville,Hondouville,9,0,7,,,,,,,,,,,,160,,
0,45.2567,4.68221,MP Hygiène,Annonay Cedex,9,0,7,,,,,,,,,,,,160,,
0,45.4115,5.53139,Fregata Hygiène,Charavines,9,0,7,,,,,,,,,,,,160,,
0,46.0512,4.09775,Sofidel France Roanne,Roanne,9,0,7,,,,,,,,,,,,160,,
0,47.9956,2.67845,ICT France,Pannes,9,0,7,,,,,,,,,,,,160,,
0,49.4073,1.11141,Kimberly-Clark Sotteville,Sotteville Lès Rouen Cedex,9,0,7,,,,,,,,,,,,160,,
0,45.6639,3.20435,Europafi,Vic le Comte,9,0,7,,,,,,,,,,,,160,,
0,45.2615,4.65667,Canson,Annonay Cedex,9,0,7,,,,,,,,,,,,160,,
0,49.4448,4.04535,Everbal,Evergnicourt,9,0,7,,,,,,,,,,,,160,,
0,61.4349,29.3437,Metsä Board,Simpele,8,0,7,,,,,,,,,,,,156,,
0,61.7587,29.3828,Metsä Group,Punkaharju,8,0,7,,,,,,,,,,,,156,,
0,61.8604,28.9228,Upm Plywood,Savonlinna,8,0,7,,,,,,,,,,,,156,,
0,61.6704,27.2909,Swm-Wood Ltd,Mikkeli,8,0,7,,,,,,,,,,,,156,,
0,60.4698,26.9525,Mm Kotkamills,Kotka,8,0,7,,,,,,,,,,,,156,,
0,61.4757,27.2736,Upm Plywood,Pellosniemi,8,0,7,,,,,,,,,,,,156,,
0,61.0942,26.7732,Upm Plywood,Vuohijärvi,8,0,7,,,,,,,,,,,,156,,
0,61.1706,28.7687,Tornator,Imatra,8,0,7,,,,,,,,,,,,156,,
0,60.9708,25.6248,Corenso United,Lahti,8,0,7,,,,,,,,,,,,156,,
0,61.1074,25.948,Versowood,Vierumäki,8,0,7,,,,,,,,,,,,156,,
0,61.202,26.0307,Stora Enso,Heinola,8,0,7,,,,,,,,,,,,156,,
0,61.1979,26.0565,Stora Enso Packaging,Heinola,8,0,7,,,,,,,,,,,,156,,
0,61.1875,26.0642,Suomen Kuitulevy,Heinola,8,0,7,,,,,,,,,,,,156,,
0,61.187,26.0659,Upm-Kymmene,Heinola,8,0,7,,,,,,,,,,,,156,,
0,61.1957,26.0123,Versowood,Heinola,8,0,7,,,,,,,,,,,,156,,
0,60.7294,24.7779,Versowood,Riihimäki,8,0,7,,,,,,,,,,,,156,,
0,60.9708,25.6242,Stora Enso Packaging,Lahti,8,0,7,,,,,,,,,,,,156,,
0,60.8138,24.6258,Tervakoski,Tervakoski,8,0,7,,,,,,,,,,,,156,,
0,61.254,28.8648,Stora Enso,Imatra,8,0,7,,,,,,,,,,,,156,,
0,61.1696,28.7645,Corenso United,Imatra,8,0,7,,,,,,,,,,,,156,,
0,60.2939,25.0442,Kekkilä,Vantaa,8,0,7,,,,,,,,,,,,156,,
0,60.3903,25.1603,Versowood,Kerava,8,0,7,,,,,,,,,,,,156,,
0,60.4579,26.2278,Corenso United,Loviisa,8,0,7,,,,,,,,,,,,156,,
0,60.4693,26.9503,Dongwha Finland,Kotka,8,0,7,,,,,,,,,,,,156,,
0,60.5327,26.9118,Sonoco-Alcore,Kotka,8,0,7,,,,,,,,,,,,156,,
0,60.4935,26.9522,Stora Enso,Kotka,8,0,7,,,,,,,,,,,,156,,
0,60.6982,26.8266,Stora Enso Ingerois,Inkeroinen,8,0,7,,,,,,,,,,,,156,,
0,61.2435,28.8654,Efora,Imatra,8,0,7,,,,,,,,,,,,156,,
0,60.7016,26.8495,Stora Enso Publication Papers,Inkeroinen,8,0,7,,,,,,,,,,,,156,,
0,60.9088,26.6544,Schaefer Kalk Finland,Kuusankoski,8,0,7,,,,,,,,,,,,156,,
0,60.9069,26.6244,Upm Communication Papers,Kuusankoski,8,0,7,,,,,,,,,,,,156,,
0,61.0877,28.1595,Metsä Fibre,Lappeenranta,8,0,7,,,,,,,,,,,,156,,
0,61.066,28.2472,Upm Communication Papers,Lappeenranta,8,0,7,,,,,,,,,,,,156,,
0,61.0673,28.2309,Upm-Kymmene,Lappeenranta,8,0,7,,,,,,,,,,,,156,,
0,61.1286,28.4633,Metsä Board,Joutseno,8,0,7,,,,,,,,,,,,156,,
0,61.1287,28.4767,Stora Enso,Joutseno,8,0,7,,,,,,,,,,,,156,,
0,60.2055,24.6559,Metsä Board,Espoo,8,0,7,,,,,,,,,,,,156,,
0,60.8937,24.2869,Metsä Fibre,Renko,8,0,7,,,,,,,,,,,,156,,
0,60.8051,23.5231,Fm-Haus,Jokioinen,8,0,7,,,,,,,,,,,,156,,
0,61.2712,24.0333,Billerudkorsnäs Finland,Valkeakoski,8,0,7,,,,,,,,,,,,156,,
0,47.6138,2.51302,DS Smith,Coullons,9,0,7,,,,,,,,,,,,157,,
0,48.1529,7.24067,DS Smith,Kaysersberg,9,0,7,,,,,,,,,,,,158,,
0,49.3674,1.11354,DS Smith,Rouen,9,0,7,,,,,,,,,,,,159,,
0,47.5986,2.50192,DS Smith Coullons,Coullons,9,0,7,,,,,,,,,,,,160,,
0,45.8706,0.814777,SKPRF Saillat,Saillat sur Vienne,9,0,7,,,,,,,,,,,,160,,
0,50.7106,2.26247,R.D.M. Blendecques,Saint Omer,9,0,7,,,,,,,,,,,,160,,
0,47.271,0.849514,Cartonnerie Oudin,Truyes,9,0,7,,,,,,,,,,,,160,,
0,61.1091,22.1554,Jujo Thermal,Kauttua,8,0,7,,,,,,,,,,,,156,,
0,48.8253,7.74021,Cenpa,Schweighouse-sur-Moder,9,0,7,,,,,,,,,,,,160,,
0,46.3407,1.90755,Cartonnerie Jean,Bonnat,9,0,7,,,,,,,,,,,,160,,
0,45.0207,0.0388838,Corenso,Saint Seurin-sur-l'Isle,9,0,7,,,,,,,,,,,,160,,
0,48.1517,7.23791,DS Smith Paper Kaysersberg,Kaysersbert,9,0,7,,,,,,,,,,,,160,,
0,45.4523,6.11951,La Rochette Cartonboard SAS,La Rochette,9,0,7,,,,,,,,,,,,160,,
0,48.2045,6.41813,Norske Skog Golbey,Golbey Cedex,9,0,7,,,,,,,,,,,,160,,
0,46.3854,6.51193,Papeterie du Léman,Thonon-les-Bains Cedex,9,0,7,,,,,,,,,,,,160,,
0,47.4528,6.80872,Papeterie de Mandeure,Mandeure,9,0,7,,,,,,,,,,,,160,,
0,47.7719,7.39009,Papeteries du Rhin,Illzach Cedex,9,0,7,,,,,,,,,,,,160,,
0,62.3717,21.2454,Metsä Board,Kaskinen,8,0,7,,,,,,,,,,,,156,,
0,64.9969,25.4304,Stora Enso Oulu,Oulu,8,0,7,,,,,,,,,,,,156,,
0,61.9241,25.7482,Stora Enso,Puhos,8,0,7,,,,,,,,,,,,156,,
0,61.2676,24.0169,Upm Specialty Papers,Valkeakoski,8,0,7,,,,,,,,,,,,156,,
0,61.266,24.024,Upm-Kymmene,Valkeakoski,8,0,7,,,,,,,,,,,,156,,
0,61.2779,23.9706,Versowood,Valkeakoski,8,0,7,,,,,,,,,,,,156,,
0,61.3171,23.9098,Pp-Logistiikka,Lempäälä,8,0,7,,,,,,,,,,,,156,,
0,61.5189,23.674,Ds Smith Packaging Finland,Tampere,8,0,7,,,,,,,,,,,,156,,
0,61.496,23.7619,Metsä Board,Tampere,8,0,7,,,,,,,,,,,,156,,
0,61.4967,23.7613,Metsä Tissue,Tampere,8,0,7,,,,,,,,,,,,156,,
0,61.5043,23.6071,Upm Raflatac,Tampere,8,0,7,,,,,,,,,,,,156,,
0,61.3479,22.8864,Riga Wood Finland,Sastamala,8,0,7,,,,,,,,,,,,156,,
0,61.5798,26.0202,METSÄ GROUP,Hartola,8,0,7,,,,,,,,,,,,156,,
0,65.1638,25.3427,Versowood,Haukipudas,8,0,7,,,,,,,,,,,,156,,
0,60.7052,22.7451,METSÄ FIBRE,Kyrö,8,0,7,,,,,,,,,,,,156,,
0,61.6664,23.1847,Metsä Board,Kyröskoski,8,0,7,,,,,,,,,,,,156,,
0,62.0274,24.6329,METSÄ TISSUE,Mänttä,8,0,7,,,,,,,,,,,,156,,
0,62.0214,24.5095,METSÄ FIBRE,Vilppula,8,0,7,,,,,,,,,,,,156,,
0,61.8158,25.235,UPM COMMUNICATION PAPERS,Kaipola,8,0,7,,,,,,,,,,,,156,,
0,60.9827,25.6612,Metsä Group,Lahti,8,0,7,,,,,,,,,,,,156,,
0,50.0058,8.31779,"Essity Operations Mainz-Kostheim, Werk Mainz-Kostheim",Mainz-Kostheim,10,0,7,,,,,,,,,,,,163,,
0,60.1713,24.8066,Metsä Tissue,Espoo,8,0,7,,,,,,,,,,,,156,,
0,53.6797,9.67854,Feldmuehle,Uetersen,10,0,7,,,,,,,,,,,,163,,
0,50.7873,6.46796,"Fripa Papierfabrik Albert Friedrich, Werk Düren",Düren,10,0,7,,,,,,,,,,,,163,,
0,51.2923,11.9886,"WEPA Deutschland & Co., Werk Leuna",Leuna,10,0,7,,,,,,,,,,,,163,,
0,50.029,8.23199,"WEPA Deutschland & Co., Werk Mainz",Mainz,10,0,7,,,,,,,,,,,,163,,
0,51.0462,13.0171,"WEPA Deutschland & Co., Werk Kriebstein",Kriebstein,10,0,7,,,,,,,,,,,,163,,
0,49.4592,10.989,Wickels Papierveredelungs-Werke Buntpapierfabrik,Fürth,10,0,7,,,,,,,,,,,,163,,
0,47.4894,19.1288,Specimen Papír- és Nyomdaipari,Budapest,12,0,7,,,,,,,,,,,,165,,
0,47.5466,19.1391,A3 Recycling,Budapest,12,0,7,,,,,,,,,,,,165,,
0,47.4956,19.0613,AGFA Offset BV Magyarországi Fióktelepe,Budapest,12,0,7,,,,,,,,,,,,165,,
0,51.4197,8.80996,"WEPA Deutschland & Co., Werk Giershagen",Marsberg-Giershagen,10,0,7,,,,,,,,,,,,163,,
0,47.5724,19.0462,Antalis Hungary,Budapest,12,0,7,,,,,,,,,,,,165,,
0,46.6826,21.1079,Békéscsabai Szakképzési Centrum Szent-Györgyi Albert Szakközépiskolája és Kollégiuma,Nagymajor,12,0,7,,,,,,,,,,,,165,,
0,47.5664,19.0823,Stanctechnik Kötészeti,Budapest,12,0,7,,,,,,,,,,,,165,,
0,47.1793,19.3468,Central Dabasi Nyomda,Dabas,12,0,7,,,,,,,,,,,,165,,
0,47.5876,19.0982,Prime Rate,Budapest,12,0,7,,,,,,,,,,,,165,,
0,47.4947,19.0743,"BGSZC Szily Kálmán Műszaki Szakgimnáziuma, Szakközépiskolája és Kollégiuma",Budapest,12,0,7,,,,,,,,,,,,165,,
0,47.4567,19.0828,Bigprint Hungary,Budapest,12,0,7,,,,,,,,,,,,165,,
0,46.7543,18.1235,Böttcher Hungária,Bábonymegyer,12,0,7,,,,,,,,,,,,165,,
0,47.1812,18.4805,BCL Kereskedelmi és Szolgáltató,Székesfehérvár,12,0,7,,,,,,,,,,,,165,,
0,46.9649,21.0729,Box Print – FSD Packaging,Körösladány,12,0,7,,,,,,,,,,,,165,,
0,51.4094,7.99187,"WEPA Deutschland & Co., Werk Arnsberg-Müschede",Arnsberg,10,0,7,,,,,,,,,,,,163,,
0,48.1099,10.6666,Aviretta,Ettringen,10,0,7,,,,,,,,,,,,163,,
0,50.7058,6.6523,Smurfit Kappa Zülpich Papier,Zülpich,10,0,7,,,,,,,,,,,,163,,
0,52.0252,8.56264,"Sprick, Bielefelder Papier- und Wellpappenwerke & Co. Hauptverwaltung",Bielefeld,10,0,7,,,,,,,,,,,,163,,
0,51.5074,8.98496,"Sprick, Bielefelder Papier- und Wellpappenwerke & Co. Werk Mitte",Diemelstadt,10,0,7,,,,,,,,,,,,163,,
0,53.7812,9.42857,Steinbeis Papier,Glückstadt,10,0,7,,,,,,,,,,,,163,,
0,49.0392,8.31415,Stora Enso Maxau,Karlsruhe,10,0,7,,,,,,,,,,,,163,,
0,51.2354,6.82039,Stora Enso Paper,Düsseldorf,10,0,7,,,,,,,,,,,,163,,
0,47.6427,10.8183,Pappenfabrik Trauchgau & Co.,Halblech,10,0,7,,,,,,,,,,,,163,,
0,52.2799,8.04718,Schoeller Technocell & Co.,Osnabrück,10,0,7,,,,,,,,,,,,163,,
0,48.3788,10.8995,UPM,Augsburg,10,0,7,,,,,,,,,,,,163,,
0,50.862,6.83248,UPM Hürth Rhein Papier,Hürth,10,0,7,,,,,,,,,,,,163,,
0,52.9805,7.36176,UPM Nordland Papier,Dörpen,10,0,7,,,,,,,,,,,,163,,
0,48.796,12.862,Rhein Papier,Plattling,10,0,7,,,,,,,,,,,,163,,
0,53.4038,8.13536,Papier- und Kartonfabrik Varel & Co.,Varel,10,0,7,,,,,,,,,,,,163,,
0,52.0323,6.8261,Papierfabrik Vreden,Vreden,10,0,7,,,,,,,,,,,,163,,
0,51.9125,9.25267,W & M Pappen & Co.,Lügde,10,0,7,,,,,,,,,,,,163,,
0,47.9058,8.22604,"Schoeller Technocell & Co., Werk Neustadt",Titisee-Neustadt,10,0,7,,,,,,,,,,,,163,,
0,47.8081,10.9024,"UPM , Werk Schongau",Schongau,10,0,7,,,,,,,,,,,,163,,
0,51.5064,8.97932,Smurfit Kappa Wrexen Paper & Board,Diemelstadt,10,0,7,,,,,,,,,,,,163,,
0,47.5612,19.0568,Canon Hungária,Budapest,12,0,7,,,,,,,,,,,,165,,
0,47.9772,21.7054,Color Pack Nyomdaipari és Csomagolóanyag Gyártó,Nyíregyháza,12,0,7,,,,,,,,,,,,165,,
0,47.9461,21.6943,Igepa 2R,Nyíregyháza,12,0,7,,,,,,,,,,,,165,,
0,47.4886,19.0812,JKM Pronat,Budapest,12,0,7,,,,,,,,,,,,165,,
0,47.5127,18.9973,Jura Trade,Budapest,12,0,7,,,,,,,,,,,,165,,
0,46.9147,19.7053,Kecskeméti Szakképzési Centrum Gáspár András Szakközépiskolja és Szakiskolája,Kecskemét,12,0,7,,,,,,,,,,,,165,,
0,47.5281,19.1488,Keskeny és Társai 2001,Budapest,12,0,7,,,,,,,,,,,,165,,
0,47.456,19.0432,Konica Minolta Magyarország,Budapest,12,0,7,,,,,,,,,,,,165,,
0,47.4749,19.0148,Kvadrát 97,Budapest,12,0,7,,,,,,,,,,,,165,,
0,47.4736,18.8642,Huber Group Hungary,Biatorbágy,12,0,7,,,,,,,,,,,,165,,
0,47.419,19.0293,LCM Stanc,Budapest,12,0,7,,,,,,,,,,,,165,,
0,46.6853,21.0923,Marzek Kner Packaging,Békéscsaba,12,0,7,,,,,,,,,,,,165,,
0,47.5366,21.6111,Nyomda-Technika,Debrecen,12,0,7,,,,,,,,,,,,165,,
0,47.4791,19.0888,Mediaworks Hungary,Budapest,12,0,7,,,,,,,,,,,,165,,
0,47.0326,19.541,Mizsepack Nyomdaipari,Lajosmizse,12,0,7,,,,,,,,,,,,165,,
0,47.5218,19.0617,Müller Martini,Budapest,12,0,7,,,,,,,,,,,,165,,
0,47.534,19.0346,Óbudai Egyetem Rejtő Sándor Könnyűipari és Környezetmérnöki Kar,Budapest,12,0,7,,,,,,,,,,,,165,,
0,47.1011,17.8892,OOK-Press Nyomdaipari és Szolgáltató,Veszprém,12,0,7,,,,,,,,,,,,165,,
0,47.4573,19.1037,manroland Magyarország,Budapest,12,0,7,,,,,,,,,,,,165,,
0,47.5033,18.9183,Codex Értékpapírnyomda,Budakeszi,12,0,7,,,,,,,,,,,,165,,
0,47.5964,19.1066,Hesse Trade,Budapest,12,0,7,,,,,,,,,,,,165,,
0,47.6861,17.6256,Győri Szolgáltatási Szakképzési Centrum Móra Ferenc Sportiskolai Általános Iskolája és Szakgimnáziuma,Gyor,12,0,7,,,,,,,,,,,,165,,
0,47.5054,19.0655,Crew Nyomdaipari Szolgáltató,Budapest,12,0,7,,,,,,,,,,,,165,,
0,47.5446,21.6184,Debreceni SZC Könnyűipari Szakképző Iskolája és Speciális Szakiskolája,Debrecen,12,0,7,,,,,,,,,,,,165,,
0,46.9272,18.9365,Dunacell,Dunaújváros,12,0,7,,,,,,,,,,,,165,,
0,46.6461,21.2742,Dürer Nyomda,Gyula,12,0,7,,,,,,,,,,,,165,,
0,46.878,16.8407,Edelmann Hungary Packaging,Zalaegerszeg,12,0,7,,,,,,,,,,,,165,,
0,47.7497,19.1485,EDS Zrínyi,Vác,12,0,7,,,,,,,,,,,,165,,
0,46.8541,16.5839,Elanders Hungary,Zalalövő,12,0,7,,,,,,,,,,,,165,,
0,47.6239,19.0642,Heidelberg Magyarország,Budakalász,12,0,7,,,,,,,,,,,,165,,
0,47.4651,19.0527,EPDB Nyomtatási Központ,Budapest,12,0,7,,,,,,,,,,,,165,,
0,47.3853,18.9687,Europapier Budapest,Budapest,12,0,7,,,,,,,,,,,,165,,
0,47.3954,19.0913,Flexo-Line 2001,Budapest,12,0,7,,,,,,,,,,,,165,,
0,47.551,19.0309,Gelbert Eco Print,Budapest,12,0,7,,,,,,,,,,,,165,,
0,46.2645,20.0978,Generál Nyomda,Szeged,12,0,7,,,,,,,,,,,,165,,
0,46.9044,19.7246,Goessler Kuverts,Kecskemét,12,0,7,,,,,,,,,,,,165,,
0,47.5304,19.085,Gravoform Kereskedelmi és Szolgáltató,Budapest,12,0,7,,,,,,,,,,,,165,,
0,46.9752,20.825,Gyomai Kner Nyomda,Gyomaendrőd,12,0,7,,,,,,,,,,,,165,,
0,47.5552,19.0345,Eurojet Hungária,Budapest,12,0,7,,,,,,,,,,,,165,,
0,51.6618,10.3524,Smurfit Kappa Herzberg Solid Board,Herzberg,10,0,7,,,,,,,,,,,,163,,
0,52.8091,9.15468,Smurfit Kappa Hoya Papier und Karton,Hoya,10,0,7,,,,,,,,,,,,163,,
0,50.5345,12.8091,"Schumacher Packaging , Werk Schwarzenberg",Schwarzenberg,10,0,7,,,,,,,,,,,,163,,
0,50.7916,6.48657,KANZAN Spezialpapiere,Düren,10,0,7,,,,,,,,,,,,163,,
0,48.7236,8.3558,Katz & Co.,Weisenbach,10,0,7,,,,,,,,,,,,163,,
0,50.3926,7.58331,"Kimberly-Clark , Werk Koblenz",Koblenz,10,0,7,,,,,,,,,,,,163,,
0,53.1692,7.36497,"Klingele Papierwerke & Co., Papierfabrik Weener",Weener,10,0,7,,,,,,,,,,,,163,,
0,50.6386,12.2089,Koehler Greiz & Co.,Greiz,10,0,7,,,,,,,,,,,,163,,
0,48.5843,7.82,Koehler Kehl,Kehl,10,0,7,,,,,,,,,,,,163,,
0,48.5281,8.08694,Koehler Paper SE,Oberkirch,10,0,7,,,,,,,,,,,,163,,
0,52.2941,8.02299,Kämmerer Spezialpapiere,Osnabrück,10,0,7,,,,,,,,,,,,163,,
0,48.4036,8.01002,Köhlerpappen,Gengenbach,10,0,7,,,,,,,,,,,,163,,
0,51.0511,13.0166,Kübler & Niethammer Papierfabrik Kriebstein,Kriebstein,10,0,7,,,,,,,,,,,,163,,
0,49.0896,9.73625,"Karl Kurz & Co., Tullau Pappen",Rosengarten - Tullau,10,0,7,,,,,,,,,,,,163,,
0,48.5576,11.2641,LEIPA Georg Leinfelder,Schrobenhausen,10,0,7,,,,,,,,,,,,163,,
0,53.0884,14.3176,Leipa Georg Leinfelder,Schwedt am Oder,10,0,7,,,,,,,,,,,,163,,
0,53.078,14.3133,LEIPA Georg Leinfelder,Schwedt am Oder,10,0,7,,,,,,,,,,,,163,,
0,48.5957,8.11627,Lenk Paper,Kappelrodeck,10,0,7,,,,,,,,,,,,163,,
0,47.7572,11.7455,Papierfabrik Louisenthal,Gmund,10,0,7,,,,,,,,,,,,163,,
0,47.8979,10.6204,Hans Kolb Papierfabrik & Co.,Kaufbeuren,10,0,7,,,,,,,,,,,,163,,
0,50.9123,14.0528,"Papierfabrik Louisenthal , Werk Königstein",Königstein,10,0,7,,,,,,,,,,,,163,,
0,52.2942,8.02304,Kämmerer Paper,Osnabrück,10,0,7,,,,,,,,,,,,163,,
0,50.3211,7.23416,Tecnokarton & Co.,Mayen,10,0,7,,,,,,,,,,,,163,,
0,50.9707,13.8794,Glatfelter Dresden,Heidenau,10,0,7,,,,,,,,,,,,163,,
0,48.7717,8.33852,Glatfelter Gernsbach,Gernsbach,10,0,7,,,,,,,,,,,,163,,
0,50.4449,9.03615,Glatfelter Ober-Schmitten,Nidda,10,0,7,,,,,,,,,,,,163,,
0,47.7543,11.7411,Büttenpapierfabrik Gmund & Co.,Gmund,10,0,7,,,,,,,,,,,,163,,
0,51.0729,8.06963,Grünewald Papier & Co.,Kirchhundem,10,0,7,,,,,,,,,,,,163,,
0,51.7802,9.69121,Hahnemühle FineArt,Dassel,10,0,7,,,,,,,,,,,,163,,
0,50.9871,13.6389,Papierfabrik Hainsberg,Freital,10,0,7,,,,,,,,,,,,163,,
0,49.9875,9.15778,DS Smith,Aschaffenburg,10,0,7,,,,,,,,,,,,164,,
0,51.5278,14.3585,"Hamburger Rieger, Papierfabrik Spremberg",Spremberg,10,0,7,,,,,,,,,,,,163,,
0,48.0256,12.5441,"Hamburger Rieger, Papierfabrik Trostberg",Trostberg,10,0,7,,,,,,,,,,,,163,,
0,47.7958,12.1193,Heinzel Paper Raubling Papier,Raubling,10,0,7,,,,,,,,,,,,163,,
0,50.9943,8.54516,Hollingsworth & Vose,Hatzfeld,10,0,7,,,,,,,,,,,,163,,
0,50.6758,7.63128,JagoTech Paper,Altenkirchen-Almersbach,10,0,7,,,,,,,,,,,,163,,
0,50.5674,9.68208,Papierfabrik Adolf Jass & Co.,Fulda,10,0,7,,,,,,,,,,,,163,,
0,50.6815,11.3323,Papierfabrik Adolf Jass Schwarza,Rudolstadt,10,0,7,,,,,,,,,,,,163,,
0,51.407,7.49086,Kabel Premium Pulp & Paper,Hagen,10,0,7,,,,,,,,,,,,163,,
0,51.5394,7.08317,Hamburger Rieger Gelsenkirchen & Co.,Gelsenkirchen,10,0,7,,,,,,,,,,,,163,,
0,50.351,11.8653,Carl Macher & Co,Brunnenthal,10,0,7,,,,,,,,,,,,163,,
0,53.6945,9.71542,Papierfabrik Meldorf & Co.,Tornesch,10,0,7,,,,,,,,,,,,163,,
0,50.4035,11.7007,Mercer Rosenthal,Rosenthal am Rennsteig,10,0,7,,,,,,,,,,,,163,,
0,49.2039,7.9479,Papierfabrik Poerringer & Co.,Annweiler am Trifels,10,0,7,,,,,,,,,,,,163,,
0,52.2531,11.8819,Progroup Paper PM1,Burg,10,0,7,,,,,,,,,,,,163,,
0,52.179,14.6345,Progroup Paper PM2,Eisenhüttenstadt,10,0,7,,,,,,,,,,,,163,,
0,51.6369,12.2288,Progroup Paper PM3,Sandersdorf-Brehna,10,0,7,,,,,,,,,,,,163,,
0,51.3919,8.07248,R.D.M. Arnsberg,Arnsberg,10,0,7,,,,,,,,,,,,163,,
0,50.8082,6.47268,Reflex & Co.,Düren,10,0,7,,,,,,,,,,,,163,,
0,51.9868,9.81896,Sappi Alfeld,Alfeld,10,0,7,,,,,,,,,,,,163,,
0,49.0425,13.0001,Pfleiderer Teisnach & Co.,Teisnach,10,0,7,,,,,,,,,,,,163,,
0,48.2697,9.72748,Sappi Ehingen,Ehingen,10,0,7,,,,,,,,,,,,163,,
0,47.8211,10.434,"Schoeller Technocell & Co., Werk Günzach",Günzach,10,0,7,,,,,,,,,,,,163,,
0,50.9338,12.7085,"Schoeller Technocell & Co., Werk Penig",Penig,10,0,7,,,,,,,,,,,,163,,
0,50.8697,13.3934,"Schoeller Technocell & Co., Werk Weißenborn",Weißenborn/Erzgebirge,10,0,7,,,,,,,,,,,,163,,
0,50.7763,6.48923,Schoellershammer,Düren,10,0,7,,,,,,,,,,,,163,,
0,50.6048,12.9915,Schönfelder Papierfabrik,Annaberg-Buchholz,10,0,7,,,,,,,,,,,,163,,
0,51.2048,6.78216,Papierfabrik Julius Schulte Söhne & Co.,Düsseldorf,10,0,7,,,,,,,,,,,,163,,
0,51.2813,12.7678,Julius Schulte Trebsen & Co.,Trebsen,10,0,7,,,,,,,,,,,,163,,
0,49.9773,9.06633,Sappi Stockstadt,Stockstadt,10,0,7,,,,,,,,,,,,163,,
0,49.0676,8.302,"Papierfabrik Palm & Co., Werk Wörth",Wörth am Rhein,10,0,7,,,,,,,,,,,,163,,
0,49.9843,10.6521,"Papierfabrik Palm & Co., Werk Eltmann",Eltmann,10,0,7,,,,,,,,,,,,163,,
0,48.8247,10.1721,"Papierfabrik Palm & Co., Werk Aalen",Aalen,10,0,7,,,,,,,,,,,,163,,
0,52.7263,12.0112,Mercer Stendal,Arneburg,10,0,7,,,,,,,,,,,,163,,
0,50.8162,6.4689,"Metsä Greaseproof Papers, Werk Düren",Düren,10,0,7,,,,,,,,,,,,163,,
0,50.7262,6.47222,"Metsä Tissue, Werk Kreuzau",Kreuzau,10,0,7,,,,,,,,,,,,163,,
0,50.5845,7.62438,"Metsä Tissue, Werk Raubach",Raubach,10,0,7,,,,,,,,,,,,163,,
0,51.9997,8.61409,Mitsubishi HiTec Paper Europe,Bielefeld,10,0,7,,,,,,,,,,,,163,,
0,54.7786,9.43183,Mitsubishi HiTec Paper Europe,Flensburg,10,0,7,,,,,,,,,,,,163,,
0,48.7439,8.34659,MM GERNSBACH,Gernsbach,10,0,7,,,,,,,,,,,,163,,
0,51.2201,6.6978,MM NEUSS,Neuss,10,0,7,,,,,,,,,,,,163,,
0,51.464,12.5937,Model Sachsen Papier,Eilenburg,10,0,7,,,,,,,,,,,,163,,
0,48.5159,9.36189,Munksjö Dettingen,Dettingen,10,0,7,,,,,,,,,,,,163,,
0,48.8163,10.1315,Munksjö Paper,Aalen-Unterkochen,10,0,7,,,,,,,,,,,,163,,
0,53.1822,11.2763,Neu Kaliss Spezialpapier,Neu Kaliß,10,0,7,,,,,,,,,,,,163,,
0,50.7423,6.48796,Niederauer Mühle,Kreuzau,10,0,7,,,,,,,,,,,,163,,
0,50.5594,6.49603,Pappenfabrik Nierfeld Joseph Piront & Co.,Schleiden,10,0,7,,,,,,,,,,,,163,,
0,51.898,10.6487,A. Obenauf & Co.,Harzburg,10,0,7,,,,,,,,,,,,163,,
0,50.8467,13.7737,PAKA Glashütter Pappen- und Kartonagenfabrik,Glashütte,10,0,7,,,,,,,,,,,,163,,
0,49.8501,7.8732,Pall Filtersystems,Bad Kreuznach,10,0,7,,,,,,,,,,,,163,,
0,49.7071,9.24349,Fripa Papierfabrik Albert Friedrich,Miltenberg,10,0,7,,,,,,,,,,,,163,,
0,50.11,22.019,Rzeszów-Jasionka Airport,Rzeszów,20,2,,,,,,,,,,,,,149,,
0,60.1714,24.8059,Metsä Group,Espoo,8,0,7,,,,,,,,,,,,156,,
0,60.2098,24.8253,Essity Finland,Espoo,8,0,7,,,,,,,,,,,,156,,
0,57.6795,11.8611,Naval Base,Gothenburg,26,3,,,,,,,,,,,,,150,,
0,59.0758,18.1384,Naval Base,Berga,26,3,,,,,,,,,,,,,150,,
0,58.9836,18.1094,Naval Base,Muskö,26,3,,,,,,,,,,,,,150,,
0,58.3926,11.6379,Naval Base,Skredsvik,26,3,,,,,,,,,,,,,150,,
0,58.4012,15.5251,Malmen Airbase,Linköping,26,3,,,,,,,,,,,,,150,,
0,56.2624,15.2718,Ronneby Airport,Blekinge,26,3,,,,,,,,,,,,,150,,
0,65.5439,22.1218,Luleå Airport,Kallax,26,3,,,,,,,,,,,,,150,,
0,56.156,15.584,Naval Base,Karlskrona,26,3,,,,,,,,,,,,,150,,
0,59.8977,17.5885,Ärna Air Base,Uppsala,26,3,,,,,,,,,,,,,150,,
0,57.289,14.1308,Air Base,Värnamo,26,3,,,,,,,,,,,,,150,,
0,58.5173,14.5193,Hagshult Air Base,Karlsborg,26,3,,,,,,,,,,,,,150,,
0,58.5073,13.0544,Råda Air Base,Lidköping,26,3,,,,,,,,,,,,,150,,
0,57.6719,18.3472,Air Base,Visby,26,3,,,,,,,,,,,,,150,,
0,66.4969,20.1475,Jokkmokk Airbase,Jokkmokk,26,3,,,,,,,,,,,,,150,,
0,65.8756,20.1501,Vidsel Airbase,Vidsel,26,3,,,,,,,,,,,,,150,,
0,56.6867,12.8363,Halmstad Airbase,Halmstad,26,3,,,,,,,,,,,,,150,,
0,58.4298,12.7113,Air Base,Såtenäs,26,3,,,,,,,,,,,,,150,,
0,65.4511,22.3668,Junkön Training area,Junkön,26,3,,,,,,,,,,,,,150,,
0,28.1356,-15.4268,Las Palmas Naval Base,Las Palmas,25,3,,,,,,,,,,,,,150,,
0,37.6014,-0.992654,Cartagena Naval Base,Cartagena,25,3,,,,,,,,,,,,,150,,
0,37.1752,-5.61589,Base Aérea de Morón,Sevilla,25,3,,,,,,,,,,,,,150,,
0,39.9084,3.1018,Aeródromo Militar de Pollença,Mallorca,25,3,,,,,,,,,,,,,150,,
0,37.7761,-0.812414,Base Aérea de San Javier,Murcia,25,3,,,,,,,,,,,,,150,,
0,42.8971,-8.41519,Aeródromo Militar de Santiago,A Coruna,25,3,,,,,,,,,,,,,150,,
0,39.5525,2.73881,Base Aérea de Son San Juan,Mallorca,25,3,,,,,,,,,,,,,150,,
0,38.8922,-6.82159,Base Aérea de Talavera la Real,Badajoz,25,3,,,,,,,,,,,,,150,,
0,40.4972,-3.44593,Base Aérea de Torrejón de Ardoz,Madrid,25,3,,,,,,,,,,,,,150,,
0,43.48,-8.23718,Ferrol Naval Base,Ferrol,25,3,,,,,,,,,,,,,150,,
0,41.706,-4.85168,Base Aérea de Villanubla,Valladolid,25,3,,,,,,,,,,,,,150,,
0,42.5894,-5.65558,Aeródromo Militar de León,Léon,25,3,,,,,,,,,,,,,150,,
0,42.4608,-2.32506,Base de Agoncillo,La Rioja,25,3,,,,,,,,,,,,,150,,
0,40.6968,-3.7667,Base Colmenar Viejo,Madrid,25,3,,,,,,,,,,,,,150,,
0,37.3138,-6.0045,Base El Copero,Sevilla,25,3,,,,,,,,,,,,,150,,
0,28.4837,-16.3416,Base de Los Rodeos,Teneriffa,25,3,,,,,,,,,,,,,150,,
0,36.6221,-6.33191,Base Naval de Rota,Cádiz,25,3,,,,,,,,,,,,,150,,
0,36.4963,-6.17724,Arsenal de la Carraca,San Fernando,25,3,,,,,,,,,,,,,150,,
0,41.6683,-1.04045,Base Aérea de Zaragoza,Zaragoza,25,3,,,,,,,,,,,,,150,,
0,40.9538,-5.50177,Base Aérea de Matacán,Salamanca,25,3,,,,,,,,,,,,,150,,
0,58.4511,12.7023,Vänern Training facility,Tvättstugan,26,3,,,,,,,,,,,,,150,,
0,47.3994,8.64818,Dübendorf Air Base,Dübendorf,28,3,,,,,,,,,,,,,150,,
0,53.0933,-0.1661,RAF Coningsby,Coningsby,27,3,,,,,,,,,,,,,150,,
0,52.642,-2.30983,RAF Cosford,Cosford,27,3,,,,,,,,,,,,,150,,
0,53.0304,-0.486505,RAF Cranwell,Cranwell,27,3,,,,,,,,,,,,,150,,
0,53.1014,-0.440477,RAF Digby,Digby,27,3,,,,,,,,,,,,,150,,
0,51.7924,-0.735851,RAF Halton,Halton,27,3,,,,,,,,,,,,,150,,
0,52.0162,-0.303157,RAF Henlow,Henlow,27,3,,,,,,,,,,,,,150,,
0,52.3433,0.772781,RAF Honington,Thetford,27,3,,,,,,,,,,,,,150,,
0,51.7508,-1.58314,RAF Brize Norton,Brize Norton,27,3,,,,,,,,,,,,,150,,
0,54.2932,-1.5357,RAF Leeming,Leeming,27,3,,,,,,,,,,,,,150,,
0,52.6487,0.550564,RAF Marham,Marham,27,3,,,,,,,,,,,,,150,,
0,53.259,-4.37373,RAF Mona,Bodffordd,27,3,,,,,,,,,,,,,150,,
0,51.5538,-0.418612,RAF Northolt,Ruislip,27,3,,,,,,,,,,,,,150,,
0,51.2347,-0.942413,RAF Odiham,Odiham,27,3,,,,,,,,,,,,,150,,
0,53.3084,-0.550999,RAF Scampton,Scampton,27,3,,,,,,,,,,,,,150,,
0,52.7987,-2.66828,RAF Shawbury Training facility,Shawbury,27,3,,,,,,,,,,,,,150,,
0,53.0239,-0.911782,RAF Syerston Training facility,Syerston,27,3,,,,,,,,,,,,,150,,
0,57.7054,-3.3392,RAF Lossiemouth,Lossiemouth,27,3,,,,,,,,,,,,,150,,
0,46.9389,8.28405,Alpnach Air Base,Alpnach,28,3,,,,,,,,,,,,,150,,
0,51.6171,-1.09562,RAF Benson,Benson,27,3,,,,,,,,,,,,,150,,
0,52.963,-0.561954,RAF Barkston Heath Training facility,Grantham,27,3,,,,,,,,,,,,,150,,
0,46.7417,8.10994,Meiringen Air Base,Meiringen,28,3,,,,,,,,,,,,,150,,
0,47.093,8.30463,Emmen Air Base,Emmen,28,3,,,,,,,,,,,,,150,,
0,46.1657,8.87802,Locarno Air Base,Gordola,28,3,,,,,,,,,,,,,150,,
0,46.8443,6.91512,Payerne Air Base,Payerne,28,3,,,,,,,,,,,,,150,,
0,52.3868,-0.425652,RAF Molesworth,Molesworth,27,3,,,,,,,,,,,,,150,,
0,52.8156,-2.4079,Chetwynd Airfield Training facility,Chetwynd,27,3,,,,,,,,,,,,,150,,
0,54.655,-6.20285,JHC FS Aldergrove,Aldergrove,27,3,,,,,,,,,,,,,150,,
0,52.3884,0.736253,RAF Barnham,Thetford,27,3,,,,,,,,,,,,,150,,
0,51.3131,-2.11624,Keevil Airfield Training facility,Keevil,27,3,,,,,,,,,,,,,150,,
0,55.8782,-3.40983,Kirknewton Airfield Training facility,Kirknewton,27,3,,,,,,,,,,,,,150,,
0,56.3738,-2.86845,Leuchars Station,Fife,27,3,,,,,,,,,,,,,150,,
0,51.8674,-1.70015,Little Rissington Airfield Training facility,Great Rissington,27,3,,,,,,,,,,,,,150,,
0,52.1352,-4.56075,MOD Aberporth,Aberpoth,27,3,,,,,,,,,,,,,150,,
0,51.1578,-1.74704,MOD Boscombe Down,Amesbury,27,3,,,,,,,,,,,,,150,,
0,51.4052,-3.43565,MOD St. Athan,St. Athan,27,3,,,,,,,,,,,,,150,,
0,54.8526,-4.94583,MOD West Freugh,West Freugh,27,3,,,,,,,,,,,,,150,,
0,51.3038,-0.0950275,Kenley Airfield Training facility,Kenley,27,3,,,,,,,,,,,,,150,,
0,36.6757,-4.499,Base Aérea de Málaga,Malaga,25,3,,,,,,,,,,,,,150,,
0,38.9493,-1.86228,Base Aérea de Los Llanos,Albacete,25,3,,,,,,,,,,,,,150,,
0,28.9463,-13.6052,Aeródromo Militar de Lanzarote,Lanzarote,25,3,,,,,,,,,,,,,150,,
0,52.1961,21.6533,23rd Air Base,Mińsk Mazowiecki,20,3,,,,,,,,,,,,,150,,
0,52.3315,16.9657,31st Air Base,Poznań,20,3,,,,,,,,,,,,,150,,
0,52.3817,17.8487,33rd Air Base,Powizd,20,3,,,,,,,,,,,,,150,,
0,53.7899,15.8325,21st Air Base,Świdwin,20,3,,,,,,,,,,,,,150,,
0,52.1667,20.9671,1st Transport Aviation Base,Warsaw,20,3,,,,,,,,,,,,,150,,
0,50.0781,19.7848,8th Transport Aviation Base,Kraków,20,3,,,,,,,,,,,,,150,,
0,51.5546,21.8782,41st Training Air Base,Dęblin,20,3,,,,,,,,,,,,,150,,
0,54.0278,19.1355,22nd Air Base,Królewo Malborskie,20,3,,,,,,,,,,,,,150,,
0,51.3928,21.2065,42nd Training Air Base,Radom,20,3,,,,,,,,,,,,,150,,
0,54.5834,18.5164,43rd Air Base,Gdynia,20,3,,,,,,,,,,,,,150,,
0,54.4161,17.7632,44th Air Base,Siemirowice,20,3,,,,,,,,,,,,,150,,
0,54.5418,18.5514,Naval Base,Gdynia,20,3,,,,,,,,,,,,,150,,
0,54.6135,18.7874,Naval Base,Hel,20,3,,,,,,,,,,,,,150,,
0,54.185,15.5521,Naval Base,Kołobrzeg,20,3,,,,,,,,,,,,,150,,
0,53.9039,14.2499,Naval Base,Świnoujście,20,3,,,,,,,,,,,,,150,,
0,54.2469,18.6679,49th Air Base,Pruszcz Gdański,20,3,,,,,,,,,,,,,150,,
0,51.1029,16.8859,Copernicus Airport Wrocław,Wrocław,20,3,,,,,,,,,,,,,150,,
0,52.8264,18.311,56th Air Base,Inowrocław,20,3,,,,,,,,,,,,,150,,
0,53.3917,16.0915,12th Unmanned Aerial Vehicles Base,Mirosławiec,20,3,,,,,,,,,,,,,150,,
0,54.4769,17.1096,Naval Support Facility Redzikowo,Słupsk,20,3,,,,,,,,,,,,,150,,
0,69.2937,16.1441,Andøya Air Station,Andøy,29,3,,,,,,,,,,,,,150,,
0,70.0671,24.9739,Station Group Banak,Banak,29,3,,,,,,,,,,,,,150,,
0,69.057,18.5409,Bardufoss Air Station,Bardufoss,29,3,,,,,,,,,,,,,150,,
0,67.2697,14.3652,Bodø Air Station,Bodø,29,3,,,,,,,,,,,,,150,,
0,68.4893,16.6787,Evenes Air Base,Evenes,29,3,,,,,,,,,,,,,150,,
0,63.7009,9.60346,Ørland Main Air Station,Ørland,29,3,,,,,,,,,,,,,150,,
0,59.3808,10.7852,Rygge Air Force Base,Rygge,29,3,,,,,,,,,,,,,150,,
0,51.5523,19.1791,32nd Air Base,Łask,20,3,,,,,,,,,,,,,150,,
0,58.877,5.63796,Sola Air Station,Sola,29,3,,,,,,,,,,,,,150,,
0,63.4581,10.9238,Vaernes Air Station,Vaernes,29,3,,,,,,,,,,,,,150,,
0,70.9416,-8.66621,Jan Mayensfield,Jan Mayen,29,3,,,,,,,,,,,,,150,,
0,59.9699,11.0389,Kjeller Airport,Kjeller,29,3,,,,,,,,,,,,,150,,
0,60.3373,5.23544,Haakonsvern Naval Base,Bergen,29,3,,,,,,,,,,,,,150,,
0,68.4945,16.5074,Ramsund Naval Base,Ramsund,29,3,,,,,,,,,,,,,150,,
0,68.7025,15.418,Sortland Naval Base,Sortland,29,3,,,,,,,,,,,,,150,,
0,58.9456,5.66763,HNoMS Harald Haarfagre,Stavanger,29,3,,,,,,,,,,,,,150,,
0,60.1834,11.1065,Station Group Gardermoen,Oslo airport,29,3,,,,,,,,,,,,,150,,
0,52.0072,19.1323,1st Aviation Group,Leźnica Wielka,20,3,,,,,,,,,,,,,150,,
0,51.5821,20.0916,7th Aviation Group,Nowy Glinnik,20,3,,,,,,,,,,,,,150,,
0,53.7687,22.01,Bemowo Piskie Training Area‎,Bemowo Piskie,20,3,,,,,,,,,,,,,150,,
0,44.3952,27.7263,RoAF 86th Air Base,Borcea,22,3,,,,,,,,,,,,,150,,
0,44.5593,26.0873,RoAF 90th Airlift Base,Otopeni,22,3,,,,,,,,,,,,,150,,
0,46.5189,26.9148,RoAF 95th Air Base,Bacău,22,3,,,,,,,,,,,,,150,,
0,45.2153,26.9772,Aurel Vlaicu Flight School,Boboc,22,3,,,,,,,,,,,,,150,,
0,43.8048,28.5675,Mangalia,Mangalia,22,3,,,,,,,,,,,,,150,,
0,44.1578,28.6612,Constanta,Constanta,22,3,,,,,,,,,,,,,150,,
0,44.819,28.8366,Babadag training facility,Babadag,22,3,,,,,,,,,,,,,150,,
0,44.3642,28.487,RoAF 57th Air Base,Mihail Kogălniceanu International Airport,22,3,,,,,,,,,,,,,150,,
0,48.4019,17.1183,Malacky-Kuchyňa,Malacky,23,3,,,,,,,,,,,,,150,,
0,49.0297,21.3156,Prešov,Prešov,23,3,,,,,,,,,,,,,150,,
0,37.1754,-5.61591,United States Air Force Air Base,Morón,25,3,,,,,,,,,,,,,150,,
0,37.9584,-1.22385,Base Aérea de Alcantarilla,Murcia,25,3,,,,,,,,,,,,,150,,
0,37.1363,-3.63177,Base Aérea de Armilla,Granada,25,3,,,,,,,,,,,,,150,,
0,40.3776,-3.78404,Base Aérea de Cuatro Vientos,Madrid,25,3,,,,,,,,,,,,,150,,
0,27.9365,-15.375,Base Aérea de Gando,Las Palmas/Gran Canaria,25,3,,,,,,,,,,,,,150,,
0,40.2969,-3.72301,Base Aérea de Getafe,Madrid,25,3,,,,,,,,,,,,,150,,
0,48.6381,19.1342,Sliač,Zvolen,23,3,,,,,,,,,,,,,150,,
0,46.5042,23.885,Romanian Air Force 71st Air Base,Câmpia Turzii,22,3,,,,,,,,,,,,,150,,
0,44.0789,24.4143,Naval Support Facility Deveselu,Deveselu,22,3,,,,,,,,,,,,,150,,
0,39.4775,-8.37468,Tancos Air Base,Vila Nova da Barquinha,21,3,,,,,,,,,,,,,150,,
0,52.5335,16.8874,Biedrusko Training Area,Biedrusko,20,3,,,,,,,,,,,,,150,,
0,53.4422,15.7724,Drawsko Pomorskie Training Area,Drawsko Pomorskie,20,3,,,,,,,,,,,,,150,,
0,51.576,15.3124,Żagań Training Area,Żagań,20,3,,,,,,,,,,,,,150,,
0,38.7624,-27.0908,United States Air Force Air Base,Lajes Field,21,3,,,,,,,,,,,,,150,,
0,39.4741,-8.38158,Tancos Air Base,"Tancos, Vila Nova da Barquinha",21,3,,,,,,,,,,,,,150,,
0,38.884,-9.03024,Alverca Airfield,Alverca,21,3,,,,,,,,,,,,,150,,
0,38.8314,-9.33963,Sintra Air Base,Sintra,21,3,,,,,,,,,,,,,150,,
0,38.7629,-27.0909,Lajes Field,Lajes,21,3,,,,,,,,,,,,,150,,
0,39.8286,-8.88749,Monte Real Air Base,"Monte Real, Leiria",21,3,,,,,,,,,,,,,150,,
0,38.7042,-9.03589,Montijo Air Base,Montijo,21,3,,,,,,,,,,,,,150,,
0,38.0792,-7.93259,Beja Airbase,Beja,21,3,,,,,,,,,,,,,150,,
0,40.9196,-8.63906,AM1 - Maneuvers Airfield No. 1,Ovar,21,3,,,,,,,,,,,,,150,,
0,33.0719,-16.3498,AM3 - Maneuvers Airfield No. 3 / Porto Santo Airport,"Vila Baleira, Madeira",21,3,,,,,,,,,,,,,150,,
0,39.0941,-8.96772,Military and Technical Training Center of the Air Force,Ota,21,3,,,,,,,,,,,,,150,,
0,38.7757,-8.88214,Field Firing Range of Alcochete,"Samora Correia, Benavente",21,3,,,,,,,,,,,,,150,,
0,38.7747,-9.13432,Lisbon Base Airfield,Lisbon,21,3,,,,,,,,,,,,,150,,
0,40.6547,-8.7436,São Jacinto Airfield,Aveiro,21,3,,,,,,,,,,,,,150,,
0,54.2062,-1.38213,RAF Topcliffe,Topcliffe,27,3,,,,,,,,,,,,,150,,
0,60.1712,24.8059,Metsä Fibre,Espoo,8,0,7,,,,,,,,,,,,156,,
0,53.2486,-4.53489,RAF Valley Training facility,Holyhead,27,3,,,,,,,,,,,,,150,,
0,51.8797,-1.22635,RAF Weston-on-the-Green,Bicester,27,3,,,,,,,,,,,,,150,,
0,66.0151,29.1418,Pölkky,Kuusamo,8,0,7,,,,,,,,,,,,156,,
0,65.8473,24.152,Versowood,Tornio,8,0,7,,,,,,,,,,,,156,,
0,65.6942,24.6155,Efora,Kemi,8,0,7,,,,,,,,,,,,156,,
0,65.761,24.522,Metsä Board,Kemi,8,0,7,,,,,,,,,,,,156,,
0,65.7603,24.528,Metsä Fibre,Kemi,8,0,7,,,,,,,,,,,,156,,
0,65.6941,24.6103,Stora Enso Veitsiluoto,Kemi,8,0,7,,,,,,,,,,,,156,,
0,64.8841,28.9117,Kuhmo,Suomussalmi,8,0,7,,,,,,,,,,,,156,,
0,49.8563,17.8509,Smurfit Kappa Morava,Žimrovice,5,0,7,,,,,,,,,,,,155,,
0,64.6635,25.113,Sonoco-Alcore,Ruukki,8,0,7,,,,,,,,,,,,156,,
0,64.1493,25.3847,Suomen Rakennustuote,Haapavesi,8,0,7,,,,,,,,,,,,156,,
0,63.9047,23.9363,Kannustalo,Kannus,8,0,7,,,,,,,,,,,,156,,
0,63.7504,25.3181,Haapajärven Ha-Sa,Haapajärvi,8,0,7,,,,,,,,,,,,156,,
0,63.7504,25.3185,Haapuu,Haapajärvi,8,0,7,,,,,,,,,,,,156,,
0,63.6985,22.7133,Billerudkorsnäs Finland,Pietarsaari,8,0,7,,,,,,,,,,,,156,,
0,63.7016,22.7027,Upm-Kymmene,Pietarsaari,8,0,7,,,,,,,,,,,,156,,
0,64.2274,27.7278,Kuhmo,Kajaani,8,0,7,,,,,,,,,,,,156,,
0,64.15,25.3874,Haapaveden Ha-Sa,Haapavesi,8,0,7,,,,,,,,,,,,156,,
0,64.1346,29.4713,Crosslam Kuhmo,Kuhmo,8,0,7,,,,,,,,,,,,156,,
0,50.6684,13.8031,Severočeská Pápírna,Novosedlice,5,0,7,,,,,,,,,,,,155,,
0,50.4633,14.3723,Mondi Štětí,Štětí,5,0,7,,,,,,,,,,,,155,,
0,43.2158,27.831,Simar Paper,Topoli,2,0,7,,,,,,,,,,,,154,,
0,43.2258,27.8482,Zavod Za Hartiya Belovo-Klon Varna,Varna Komers,2,0,7,,,,,,,,,,,,154,,
0,42.2212,24.0042,Zavod Za Hartiya Belovo,Belovo,2,0,7,,,,,,,,,,,,154,,
0,42.2072,24.3309,Alba Group Ltd,Pazardzhik,2,0,7,,,,,,,,,,,,154,,
0,42.1587,24.3155,Bulhart,Glavinitsa,2,0,7,,,,,,,,,,,,154,,
0,42.1473,24.3213,DS Smith Trakia Paper Mill,Pazardzhik,2,0,7,,,,,,,,,,,,154,,
0,42.1348,24.5264,Mondi Stambolijski EAD,Stamboliyski,2,0,7,,,,,,,,,,,,154,,
0,49.9606,16.8645,OP papírna sro,Olšany,5,0,7,,,,,,,,,,,,155,,
0,42.1607,24.7669,Unisnab,Plovdiv,2,0,7,,,,,,,,,,,,154,,
0,42.6595,23.3853,Slavei 91,Sofia,2,0,7,,,,,,,,,,,,154,,
0,42.8108,23.224,Lipo Hart,Kostinbrod,2,0,7,,,,,,,,,,,,154,,
0,49.7153,18.2981,Lenzing Biocel Paskov,Paskov,5,0,7,,,,,,,,,,,,155,,
0,49.291,17.0054,Corex Czech,Vyškov,5,0,7,,,,,,,,,,,,155,,
0,50.7232,15.4149,Emba,Paseky,5,0,7,,,,,,,,,,,,155,,
0,49.2568,15.7794,Huhtamaki,Petrovická,5,0,7,,,,,,,,,,,,155,,
0,50.5355,15.7386,Krpa Paper,Hospitality,5,0,7,,,,,,,,,,,,155,,
0,41.541,23.256,SBS TUBE LTD,Sandanski,2,0,7,,,,,,,,,,,,154,,
0,43.2085,24.1745,Vitavel,Lukovit,2,0,7,,,,,,,,,,,,154,,
0,64.1292,29.5206,Kuhmo,Kuhmo,8,0,7,,,,,,,,,,,,156,,
0,63.0788,25.8697,Er-Saha,Viitasaari,8,0,7,,,,,,,,,,,,156,,
0,61.919,25.1695,Upm Communication Papers,Jämsänkoski,8,0,7,,,,,,,,,,,,156,,
0,62.1407,25.7703,Upm Plywood,Säynätsalo,8,0,7,,,,,,,,,,,,156,,
0,62.248,25.7453,Neova,Jyväskylä,8,0,7,,,,,,,,,,,,156,,
0,61.5916,21.8785,A.Ahlström Kiinteistöt,Noormarkku,8,0,7,,,,,,,,,,,,156,,
0,61.5151,21.6699,Corenso United,Pori,8,0,7,,,,,,,,,,,,156,,
0,61.4886,21.8107,Upm-Kymmene,Pori,8,0,7,,,,,,,,,,,,156,,
0,61.5801,21.5294,Versowood,Pori,8,0,7,,,,,,,,,,,,156,,
0,61.8975,24.1058,Stora Enso Packaging,Jäminkipohja,8,0,7,,,,,,,,,,,,156,,
0,61.1114,21.4648,Metsä Fibre,Rauma,8,0,7,,,,,,,,,,,,156,,
0,60.8848,21.6851,Veljet Kuusisto,Laitila,8,0,7,,,,,,,,,,,,156,,
0,60.4459,22.1579,Late-Rakenteet,Turku,8,0,7,,,,,,,,,,,,156,,
0,60.2566,24.0586,Mahogany,Lohja,8,0,7,,,,,,,,,,,,156,,
0,60.2502,24.0671,Metsä Group,Lohja,8,0,7,,,,,,,,,,,,156,,
0,60.1894,23.943,Sappi Finland,Lohja,8,0,7,,,,,,,,,,,,156,,
0,60.334,24.3205,Ds Smith Packaging Finland,Nummela,8,0,7,,,,,,,,,,,,156,,
0,60.3209,24.2697,Riga Wood Finland,Nummela,8,0,7,,,,,,,,,,,,156,,
0,61.1192,21.4816,Upm Communication Papers,Rauma,8,0,7,,,,,,,,,,,,156,,
0,61.8057,24.3842,Upm-Kymmene,Korkeakoski,8,0,7,,,,,,,,,,,,156,,
0,61.9755,24.0591,Sonoco-Alcore,Ruovesi,8,0,7,,,,,,,,,,,,156,,
0,61.8583,21.5004,Metsä Fibre,Merikarvia,8,0,7,,,,,,,,,,,,156,,
0,63.0943,25.8458,Kps-Kuljetus,Viitasaari,8,0,7,,,,,,,,,,,,156,,
0,63.325,30.1404,Pankaboard,Pankakoski,8,0,7,,,,,,,,,,,,156,,
0,62.9217,30.2288,Stora Enso,Uimaharju,8,0,7,,,,,,,,,,,,156,,
0,62.9236,28.6906,Elemenco,Luikonlahti,8,0,7,,,,,,,,,,,,156,,
0,62.8913,27.6369,Harvestia,Kuopio,8,0,7,,,,,,,,,,,,156,,
0,62.9465,27.7072,Mondi Powerflute,Kuopio,8,0,7,,,,,,,,,,,,156,,
0,62.7067,25.2554,Raivauspalvelu Sipilä,Saarijärvi,8,0,7,,,,,,,,,,,,156,,
0,62.0103,23.0214,Upm-Kymmene,Parkano,8,0,7,,,,,,,,,,,,156,,
0,62.5995,25.7315,Metsä Board,Äänekoski,8,0,7,,,,,,,,,,,,156,,
0,62.5735,25.8405,Kumpuniemen Voima,Suolahti,8,0,7,,,,,,,,,,,,156,,
0,62.5736,25.8402,Metsä Group,Suolahti,8,0,7,,,,,,,,,,,,156,,
0,62.2974,26.4773,Versowood,Hankasalmi,8,0,7,,,,,,,,,,,,156,,
0,62.316,27.892,Stora Enso,Varkaus,8,0,7,,,,,,,,,,,,156,,
0,62.3247,27.8961,Stora Enso Publication Papers,Varkaus,8,0,7,,,,,,,,,,,,156,,
0,62.6044,29.7779,Upm Plywood,Joensuu,8,0,7,,,,,,,,,,,,156,,
0,62.3024,21.4561,Stora Enso Packaging,Tiukka,8,0,7,,,,,,,,,,,,156,,
0,62.5914,25.7523,Metsä Fibre,Äänekoski,8,0,7,,,,,,,,,,,,156,,
0,43.5599,23.7276,Serifco,Barzina,2,0,7,,,,,,,,,,,,154,,
0,43.6883,23.8561,Tekon Invest,Mizia,2,0,7,,,,,,,,,,,,154,,
0,43.7297,23.9799,Hidcom,Oryahovo,2,0,7,,,,,,,,,,,,154,,
0,50.8068,-1.10534,His Majesty's Naval Base Portsmouth,Portsmouth,27,3,,,,,,,,,,,,,150,,
0,56.0536,-4.81819,His Majesty's Naval Base Clyde,Faslane,27,3,,,,,,,,,,,,,150,,
0,50.3826,-4.18469,His Majesty's Naval Base Devonport,Devonport,27,3,,,,,,,,,,,,,150,,
0,55.5109,-4.58177,His Majesty's Gannet,Glasgow,27,3,,,,,,,,,,,,,150,,
0,50.8175,-1.09737,HMS Excellent,Portsmouth,27,3,,,,,,,,,,,,,150,,
0,50.6408,-2.17034,Lulworth Ranges Training area,Dorset,27,3,,,,,,,,,,,,,150,,
0,55.3985,-2.29894,Otterburn Training Area,Otterburn,27,3,,,,,,,,,,,,,150,,
0,50.9685,-2.93726,Royal Naval Air Station Merryfield,Ilton,27,3,,,,,,,,,,,,,150,,
0,51.2627,-1.8941,Salisbury Plain Training area,Warminster/Amsbury,27,3,,,,,,,,,,,,,150,,
0,52.5406,0.702946,Stanford Training Area,Thetford,27,3,,,,,,,,,,,,,150,,
0,51.3253,-1.0633,Bramley Training Area,Bramley,27,3,,,,,,,,,,,,,150,,
0,51.6308,-4.98233,Castlemartin Training Area,Castlemartin,27,3,,,,,,,,,,,,,150,,
0,50.6911,-3.98563,Dartmoor Training Area,Okehampton,27,3,,,,,,,,,,,,,150,,
0,52.776,-2.94388,Nesscliffe Training Area,Nessclife,27,3,,,,,,,,,,,,,150,,
0,51.9667,-2.87094,Pontrilas Army Training Area,Ewyas Harold,27,3,,,,,,,,,,,,,150,,
0,54.6179,-2.37577,Warcop Training Area,Warcop,27,3,,,,,,,,,,,,,150,,
0,52.0574,-3.55829,Sennybridge Training Area,Sennybridge,27,3,,,,,,,,,,,,,150,,
0,53.4748,0.152109,Donna Nook Training area,North Somercotes,27,3,,,,,,,,,,,,,150,,
0,49.9998,-5.23073,RNAS Predannack,Mullion,27,3,,,,,,,,,,,,,150,,
0,52.0852,-2.79497,Stirling Lines,Credenhill,27,3,,,,,,,,,,,,,150,,
0,52.6129,-0.476242,RAF Wittering,Wittering,27,3,,,,,,,,,,,,,150,,
0,53.5825,-3.05538,RAF Woodvale,Woodvale,27,3,,,,,,,,,,,,,150,,
0,52.3579,-0.107842,RAF Wyton,St Ives,27,3,,,,,,,,,,,,,150,,
0,52.8734,-2.53223,Ternhill Airfield Training facility,Ternhill,27,3,,,,,,,,,,,,,150,,
0,52.3712,-0.226818,United States Air Force Former military airfield,Alconbury,27,3,,,,,,,,,,,,,150,,
0,52.0041,-1.36021,United States Air Force Former military airfield,Barford St. John,27,3,,,,,,,,,,,,,150,,
0,51.9887,-1.18104,United States Air Force Former military airfield,Croughton,27,3,,,,,,,,,,,,,150,,
0,51.2458,-1.75881,Netheravon Airfield,Netheravon,27,3,,,,,,,,,,,,,150,,
0,51.683,-1.79022,United States Air Force Former military airfield,Fairford,27,3,,,,,,,,,,,,,150,,
0,52.4091,0.55709,USAF - RAF Air Base,Lakenheath,27,3,,,,,,,,,,,,,150,,
0,52.3657,0.480717,USAF - RAF Air Base,Mildenhall,27,3,,,,,,,,,,,,,150,,
0,51.4691,-1.40389,United States Air Force Ammunition depot,Welford,27,3,,,,,,,,,,,,,150,,
0,52.1275,0.955658,Wattisham Airfield,Wattisham,27,3,,,,,,,,,,,,,150,,
0,51.0089,-2.63776,Royal Naval Air Station Yeovilton,Somerset,27,3,,,,,,,,,,,,,150,,
0,50.0871,-5.25569,Royal Naval Air Station Culdrose,Helston,27,3,,,,,,,,,,,,,150,,
0,51.1496,-1.56988,Army Aviation Centre (AAC) Middle Wallop,Hampshire,27,3,,,,,,,,,,,,,150,,
0,52.48,0.519423,United States Air Force Former military airfield,Feltwell,27,3,,,,,,,,,,,,,150,,
0,52.863,0.172698,Holbeach Training area,Gedney Drove End,27,3,,,,,,,,,,,,,150,,
0,51.7204,-4.36692,Pembrey Sands Training area,Pembrey,27,3,,,,,,,,,,,,,150,,
0,57.8112,-3.97358,Tain Training area,Tain,27,3,,,,,,,,,,,,,150,,
0,47.9915,13.8001,UPM Kymmene Austria (Papierfabrik Steyrermühl),Laakirchen,0,0,7,,,,,,,,,,,,151,,
0,47.7075,16.1771,W. Hamburger,Pitten,0,0,7,,,,,,,,,,,,151,,
0,47.2161,14.5907,Zellstoff Pöls,Pöls,0,0,7,,,,,,,,,,,,151,,
0,50.4177,6.00193,Ahlstrom Munksjö,Malmédy,1,0,7,,,,,,,,,,,,152,,
0,49.5506,5.50406,Burgo Ardennes,Virton,1,0,7,,,,,,,,,,,,152,,
0,49.5459,5.50212,Burgo Ardennes,Harnoncour,1,0,7,,,,,,,,,,,,152,,
0,51.0878,4.49224,Sofidel Benelux,Duffel,1,0,7,,,,,,,,,,,,152,,
0,48.1843,14.2595,Smurfit Kappa Nettingsdorf,Haid bei Ansfelden,0,0,7,,,,,,,,,,,,151,,
0,51.0153,4.06785,Vpk Paper,Dendermonde,1,0,7,,,,,,,,,,,,152,,
0,50.5958,5.89142,Essity,Stembert,1,0,7,,,,,,,,,,,,152,,
0,50.7517,4.27014,St Leonard,Huizingen,1,0,7,,,,,,,,,,,,152,,
0,51.1098,3.73365,Stora Enso,Gent,1,0,7,,,,,,,,,,,,152,,
0,42.688,24.2605,DS Smith,Trakia,2,0,7,,,,,,,,,,,,153,,
0,43.8295,25.9457,VELPAKS,Ruse,2,0,7,,,,,,,,,,,,154,,
0,43.7022,24.8395,GFF JSC - Cherkovitsa,Cherkovitsa,2,0,7,,,,,,,,,,,,154,,
0,43.6361,25.3045,Svilosa,Svishtov,2,0,7,,,,,,,,,,,,154,,
0,50.8829,5.63851,Sappi Lanaken,Lanaken,1,0,7,,,,,,,,,,,,152,,
0,47.1358,15.3343,Sappi Austria Produktions & Co,Gratkorn,0,0,7,,,,,,,,,,,,151,,
0,47.9753,13.6153,Lenzing,Lenzing,0,0,7,,,,,,,,,,,,151,,
0,48.1975,15.6378,Salzer Papier,St. Pölten,0,0,7,,,,,,,,,,,,151,,
0,58.6132,-4.98743,Cape Wrath Training area,Cape Wrath,27,3,,,,,,,,,,,,,150,,
0,50.9357,0.89437,Lydd Rnges Training area,Lydd,27,3,,,,,,,,,,,,,150,,
0,51.639,-4.78388,Manorbier Range Training area,Manorbier,27,3,,,,,,,,,,,,,150,,
0,47.6752,13.1104,AustroCel Hallein,Hallein,0,0,7,,,,,,,,,,,,151,,
0,47.397,15.1512,Brigl & Bergmeister,Niklasdorf,0,0,7,,,,,,,,,,,,151,,
0,48.2181,14.2432,Dr. Franz Feurstein,Traun,0,0,7,,,,,,,,,,,,151,,
0,47.8946,15.9733,Essity Austria,Pernitz,0,0,7,,,,,,,,,,,,151,,
0,47.9787,13.8205,Laakirchen Papier,Laakirchen,0,0,7,,,,,,,,,,,,151,,
0,47.2788,15.3272,MM Frohnleiten,Frohnleiten,0,0,7,,,,,,,,,,,,151,,
0,48.2989,14.5788,Merckens Karton- & Pappenfabrik,Schwertberg,0,0,7,,,,,,,,,,,,151,,
0,46.8622,14.8669,Mondi Frantschach,St. Gertraud,0,0,7,,,,,,,,,,,,151,,
0,48.0732,14.8092,Mondi Neusiedler,Ulmerfeld-Hausmening,0,0,7,,,,,,,,,,,,151,,
0,47.4153,15.277,Norske Skog Bruck,Bruck/Mur,0,0,7,,,,,,,,,,,,151,,
0,47.2969,11.5904,Papierfabrik Wattens & Co,Wattens,0,0,7,,,,,,,,,,,,151,,
0,48.077,14.8113,Poneder e.U.,Hausmening,0,0,7,,,,,,,,,,,,151,,
0,47.609,16.1229,Profümed,Grimmenstein,0,0,7,,,,,,,,,,,,151,,
0,47.2184,9.63928,Rondo Ganahl,Frastanz,0,0,7,,,,,,,,,,,,151,,
0,53.1717,-0.521931,RAF Waddington,Waddington,27,3,,,,,,,,,,,,,150,,
0,51.3892,21.2133,Radom Airport,Radom,20,2,,,,,,,,,,,,,149,,
0,52.3794,17.8539,Powidz Military Air Base,,20,2,,,,,,,,,,,,,149,,
0,52.421,16.8263,Poznań-Ławica Airport,Poznań,20,2,,,,,,,,,,,,,149,,
0,55.1172,26.1538,Svencioniu nuoteku valykla,Cirkliškis,16,1,30,,,,,,,,,,,,148,,
0,55.2171,22.2613,Taurages nuoteku valykla,Ližiai,16,1,30,,,,,,,,,,,,148,,
0,54.6631,25.0471,Traku-Lentvario nuoteku valykla,Lentvaris,16,1,30,,,,,,,,,,,,148,,
0,55.228,24.7344,Ukmerges nuoteku valykla,Ukmergė,16,1,30,,,,,,,,,,,,148,,
0,54.6593,23.0186,Vilkaviskio nuoteku valykla,Vilkaviškis,16,1,30,,,,,,,,,,,,148,,
0,49.6502,6.13254,Beggen,Walferdange,17,1,30,,,,,,,,,,,,148,,
0,49.5228,6.11785,Bettembourg,Bettembourg,17,1,30,,,,,,,,,,,,148,,
0,55.3411,21.4359,Silutes nuoteku valykla,Šyša,16,1,30,,,,,,,,,,,,148,,
0,49.8717,6.19082,Bleesbruck,Gilsdorf,17,1,30,,,,,,,,,,,,148,,
0,49.4837,6.29777,Emerange,Schengen,17,1,30,,,,,,,,,,,,148,,
0,49.5141,6.01729,Esch/Schifflange,Schifflange,17,1,30,,,,,,,,,,,,148,,
0,49.5855,6.14846,Hesperange,Hesperange,17,1,30,,,,,,,,,,,,148,,
0,49.6253,6.04104,Mamer,Mamer,17,1,30,,,,,,,,,,,,148,,
0,49.7625,6.11148,Mersch,Mersch,17,1,30,,,,,,,,,,,,148,,
0,49.5579,5.85458,Petange,Pétange,17,1,30,,,,,,,,,,,,148,,
0,49.6406,6.27797,Uebersyren,Schuttrange,17,1,30,,,,,,,,,,,,148,,
0,49.8125,6.43633,Echternach,Echternach,17,1,30,,,,,,,,,,,,148,,
0,57.026,24.001,BAI Daugavgrīva,Riga,15,1,30,,,,,,,,,,,,148,,
0,56.0096,23.2913,Siauliu nuoteku valykla,Vinkšnėnai,16,1,30,,,,,,,,,,,,148,,
0,55.7105,24.2165,Panevezio nuoteku valykla,Lakštingalos,16,1,30,,,,,,,,,,,,148,,
0,42.9771,13.8679,SAN LEONARDO GRT DEP,Grottammare,14,1,30,,,,,,,,,,,,148,,
0,42.8943,13.9014,BRODOLINI SBT DEP,Grottammare,14,1,30,,,,,,,,,,,,148,,
0,42.5627,12.6111,TERNI MARATTA BASSA VIA VANZETTI,Terni,14,1,30,,,,,,,,,,,,148,,
0,42.4007,14.3133,FORO,Francavilla Al Mare,14,1,30,,,,,,,,,,,,148,,
0,42.5009,14.1215,MONTESILVANO EX CONSIDAN,Montesilvano,14,1,30,,,,,,,,,,,,148,,
0,42.4449,14.1918,PESCARA VIA RAIALE,Pescara,14,1,30,,,,,,,,,,,,148,,
0,42.4398,14.2485,PRETARO,Pescara,14,1,30,,,,,,,,,,,,148,,
0,55.8808,21.7987,Plunges nuoteku valykla,Varkaliai,16,1,30,,,,,,,,,,,,148,,
0,54.4365,24.0519,Alytaus nuoteku valykla,Alytus City,16,1,30,,,,,,,,,,,,148,,
0,55.0673,24.2557,Jonavos nuoteku valykla,Jonava,16,1,30,,,,,,,,,,,,148,,
0,54.9014,23.8419,Kauno nuoteku valykla,Kaunas,16,1,30,,,,,,,,,,,,148,,
0,55.2655,23.947,Kedainiu nuoteku valykla,Kėdainiai,16,1,30,,,,,,,,,,,,148,,
0,55.6397,21.2534,Klaipedos nuoteku valykla,Dumpiai,16,1,30,,,,,,,,,,,,148,,
0,54.5867,23.3578,Marijampoles nuoteku valykla,Marijampolė,16,1,30,,,,,,,,,,,,148,,
0,56.3153,22.2658,Mazeikiu nuoteku valykla,Troškučiai,16,1,30,,,,,,,,,,,,148,,
0,56.0661,21.1106,Palangos nuoteku valykla,Palanga,16,1,30,,,,,,,,,,,,148,,
0,54.0469,24.0111,Druskininku nuoteku valykla,Neravai,16,1,30,,,,,,,,,,,,148,,
0,43.1468,13.779,SALVANO FRM DEP,Fermo,14,1,30,,,,,,,,,,,,148,,
0,55.8765,26.505,Daugavpils ūdens,Daugavpils,15,1,30,,,,,,,,,,,,148,,
0,56.6662,23.712,"SIA Jelgavas ūdens, Lapsakalna iela 22, Jelgava",Jelgava,15,1,30,,,,,,,,,,,,148,,
0,67.2687,14.419,Skansenodden renseanlegg,Bodø,29,1,30,,,,,,,,,,,,148,,
0,68.4469,17.4472,Narvik renseanlegg,Narvik,29,1,30,,,,,,,,,,,,148,,
0,66.3355,14.1401,Mjølan avløpsrenseanlegg,Mo i Rana,29,1,30,,,,,,,,,,,,148,,
0,59.1209,11.3601,Remmendalen avløpsanlegg,Halden,29,1,30,,,,,,,,,,,,148,,
0,59.4745,10.6865,Kambo avløpsanlegg,Moss,29,1,30,,,,,,,,,,,,148,,
0,59.3841,10.6618,Fuglevik avløpsanlegg,Moss,29,1,30,,,,,,,,,,,,148,,
0,59.2731,11.0758,Alvim renseanlegg,Sarpsborg,29,1,30,,,,,,,,,,,,148,,
0,67.3021,14.3869,Kvalvikodden renseanlegg,Bodø,29,1,30,,,,,,,,,,,,148,,
0,59.1831,10.9678,Øra avløpsanlegg,Fredrikstad,29,1,30,,,,,,,,,,,,148,,
0,59.7507,10.1535,Muusøya avløpsanlegg,Drammen,29,1,30,,,,,,,,,,,,148,,
0,59.7502,10.0283,Mjøndalen avløpsanlegg,Mjøndalen,29,1,30,,,,,,,,,,,,148,,
0,59.6498,9.64901,Sellikdalen avløpsanlegg,Kongsberg,29,1,30,,,,,,,,,,,,148,,
0,60.1444,10.2336,Monserud avløpsanlegg,Ringerike,29,1,30,,,,,,,,,,,,148,,
0,59.5618,11.1503,AHSA avløpsanlegg,Indre Østfold,29,1,30,,,,,,,,,,,,148,,
0,59.5887,10.6789,Søndre Follo renseanlegg,Vestby,29,1,30,,,,,,,,,,,,148,,
0,59.7534,10.7833,Nordre Follo renseanlegg,Togrenda,29,1,30,,,,,,,,,,,,148,,
0,59.7113,10.2688,Solumstrand avløpsanlegg,Drammen,29,1,30,,,,,,,,,,,,148,,
0,56.5972,21.0208,Liepājas ūdens,Liepaja,15,1,30,,,,,,,,,,,,148,,
0,62.4713,6.13332,RA2 Aspøy,Ålesund,29,1,30,,,,,,,,,,,,148,,
0,62.7408,7.22727,RA2 Nøisomhed,Molde,29,1,30,,,,,,,,,,,,148,,
0,56.9362,23.6498,"SIA Jūrmalas ūdens, Mežmalas 41, Jūrmala",Jūrmala,15,1,30,,,,,,,,,,,,148,,
0,57.4058,21.5764,SIA Ūdeka BNAI,Ventspils,15,1,30,,,,,,,,,,,,148,,
0,56.5353,27.2989,SIA Rēzeknes ūdens,Vērēmu pagasts,15,1,30,,,,,,,,,,,,148,,
0,56.5161,25.8376,SIA Jēkabpils ūdens,Jēkabpils,15,1,30,,,,,,,,,,,,148,,
0,57.5212,25.4022,SIA Valmieras ūdens,Valmiera,15,1,30,,,,,,,,,,,,148,,
0,57.3077,25.2172,Cēsu NAI,Cēsis,15,1,30,,,,,,,,,,,,148,,
0,35.9681,14.3385,Cumnija Urban Wastewater Treatment Plant,Mellieha,18,1,30,,,,,,,,,,,,148,,
0,62.462,6.31657,RA4 Åse,Aalesund,29,1,30,,,,,,,,,,,,148,,
0,36.0189,14.2778,Ras il-Hobz Urban Wastewater Treatment Plant,Għajnsielem,18,1,30,,,,,,,,,,,,148,,
0,59.883,10.767,Bekkelaget renseanlegg med tilførselstuneller og overløp,Oslo,29,1,30,,,,,,,,,,,,148,,
0,58.4194,6.00627,Hestnes renseanlegg,Hestnes,29,1,30,,,,,,,,,,,,148,,
0,59.4439,5.24816,Årabrot  avløpsanlegg,Haugesund,29,1,30,,,,,,,,,,,,148,,
0,58.6311,5.59759,Grødaland renseanlegg,Ha,29,1,30,,,,,,,,,,,,148,,
0,58.7125,5.54142,Vik renseanlegg,Klepp,29,1,30,,,,,,,,,,,,148,,
0,59.0198,5.61851,Sentralrenseanlegget for Nord Jæren SNJ,Randaberg,29,1,30,,,,,,,,,,,,148,,
0,63.1272,7.72595,Hagelin,Kristiansund Municipality,29,1,30,,,,,,,,,,,,148,,
